[
  {
    "id": 30139,
    "name_no_copy": "с. Андроники, Корюківська громада, Корюківський р-н, Чернігівська обл.",
    "lat": 51.8005911,
    "lng": 32.0883752,
    "meta": {
      "google_maps_place_id": "ChIJ80SO4mssK0ERchRC_kM7gfc"
    }
  },
  {
    "id": 29794,
    "name": "с. Андреківське, Селятинська громада, Вижницький р-н, Чернівецька обл.",
    "lat": 47.801799,
    "lng": 25.118117,
    "meta": {
      "google_maps_place_id": "ChIJ58sgNCB_NkcRBHJ9SLF4Sxk"
    }
  },
  {
    "id": 7766,
    "name_no_copy": "с. Андріївка, Старобешівська громада, Кальміуський р-н, Донецька обл.",
    "lat": 47.6573202,
    "lng": 38.0891727,
    "meta": {
      "google_maps_place_id": "ChIJS7aH4rPe4EARbNvmFAmS5fo"
    }
  },
  {
    "id": 19375,
    "name_no_copy": "с. Антоно-Ковач, Великоплосківська громада, Роздільнянський р-н, Одеська обл.",
    "lat": 46.9426846,
    "lng": 29.7612687,
    "meta": {
      "google_maps_place_id": "ChIJZc7Jhj8eyUARvmqd8tBh7Zc"
    }
  },
  {
    "id": 24073,
    "name_no_copy": "с. Антонівці, Шумська громада, Кременецький р-н, Тернопільська обл.",
    "lat": 50.2108139,
    "lng": 25.9255043,
    "meta": {
      "google_maps_place_id": "ChIJH9VPiFe8L0cR2dv6pGTvPq8"
    }
  },
  {
    "id": 14902,
    "name_no_copy": "м. Антрацит, Антрацитівська громада, Ровеньківський р-н, Луганська обл.",
    "lat": 48.11995049999999,
    "lng": 39.0897865,
    "meta": {
      "google_maps_place_id": "ChIJlaaTFxXK4UARNJqGcOEcabo"
    }
  },
  {
    "id": 31040,
    "name_no_copy": "с. Антішки, Срібнянська громада, Прилуцький р-н, Чернігівська обл.",
    "lat": 50.6850528,
    "lng": 33.0529869,
    "meta": {
      "google_maps_place_id": "ChIJNV8ycN8AKkER4GziYPQzpEI"
    }
  },
  {
    "id": 28069,
    "name_no_copy": "с. Анютине, Летичівська громада, Хмельницький р-н, Хмельницька обл.",
    "lat": 49.3265558,
    "lng": 27.5929906,
    "meta": {
      "google_maps_place_id": "ChIJfaO-_YaHLUcRtmogax3kyto"
    }
  },
  {
    "id": 7481,
    "name_no_copy": "с. Артемівка, Амвросіївська громада, Донецький р-н, Донецька обл.",
    "lat": 47.8707562,
    "lng": 38.6395463,
    "meta": {
      "google_maps_place_id": "ChIJPZvCSlsA4UARjpO8wDrxPBo"
    }
  },
  {
    "id": 22435,
    "name_no_copy": "с. Атаманське, Буринська громада, Конотопський р-н, Сумська обл.",
    "lat": 51.0065169,
    "lng": 33.8069063,
    "meta": {
      "google_maps_place_id": "ChIJIQIPbi2EKUERTIHGk_Bo1-0"
    }
  },
  {
    "id": 6725,
    "name_no_copy": "с. Бабакове, Васильківська громада, Синельниківський р-н, Дніпропетровська обл.",
    "lat": 48.2697075,
    "lng": 35.8025283,
    "meta": {
      "google_maps_place_id": "ChIJc__Ztoef3kAR_N6Kcg75YD0"
    }
  },
  {
    "id": 14430,
    "name_no_copy": "с. Бабичівка, Великоандрусівська громада, Олександрійський р-н, Кіровоградська обл.",
    "lat": 49.0560018,
    "lng": 33.0357816,
    "meta": {
      "google_maps_place_id": "ChIJf8gfFUG20EAREkJ6J9f112Q"
    }
  },
  {
    "id": 6008,
    "name_no_copy": "с. Байдаківка, Лихівська громада, Кам'янський р-н, Дніпропетровська обл.",
    "lat": 48.6277073,
    "lng": 33.8030378,
    "meta": {
      "google_maps_place_id": "ChIJr3UKdus-2kARioAwB_HPzqw"
    }
  },
  {
    "id": 5911,
    "name_no_copy": "с. Байківка, Вишнівська громада, Кам'янський р-н, Дніпропетровська обл.",
    "lat": 48.4136993,
    "lng": 33.9522692,
    "meta": {
      "google_maps_place_id": "ChIJc7Y2sHtM2kAR_uXZ4nmzk7w"
    }
  },
  {
    "id": 15136,
    "name_no_copy": "с. Бараничеве, Троїцька громада, Сватівський р-н, Луганська обл.",
    "lat": 49.7468758,
    "lng": 38.1266289,
    "meta": {
      "google_maps_place_id": "ChIJnzXnzAEZIUER5rPilh9tQgs"
    }
  },
  {
    "id": 30931,
    "name_no_copy": "с. Барбурське, Ічнянська громада, Прилуцький р-н, Чернігівська обл.",
    "lat": 50.9965303,
    "lng": 32.2080148,
    "meta": {
      "google_maps_place_id": "ChIJu8kZ8zKHKkERKhO2OVUTTdo"
    }
  },
  {
    "id": 9495,
    "name_no_copy": "с. Барвінкове, Овруцька громада, Коростенський р-н, Житомирська обл.",
    "lat": 51.33055969999999,
    "lng": 28.6340357,
    "meta": {
      "google_maps_place_id": "ChIJMTdZDTOEKUcREL9GL_i5a0k"
    }
  },
  {
    "id": 5536,
    "name_no_copy": "с. Барвінок, Торчинська громада, Луцький р-н, Волинська обл.",
    "lat": 50.8199074,
    "lng": 24.9141257,
    "meta": {
      "google_maps_place_id": "ChIJAaxrC1OuJUcRJDVepCpha8o"
    }
  },
  {
    "id": 31636,
    "name_no_copy": "с. Безиків, Тупичівська громада, Чернігівський р-н, Чернігівська обл.",
    "lat": 51.8131279,
    "lng": 31.3378031,
    "meta": {
      "google_maps_place_id": "ChIJmfOD8QQi1UYRAMH1WFOZfoo"
    }
  },
  {
    "id": 6391,
    "name_no_copy": "с. Бекетівка, Першотравневська громада, Нікопольський р-н, Дніпропетровська обл.",
    "lat": 47.8599189,
    "lng": 34.2971552,
    "meta": {
      "google_maps_place_id": "ChIJXaOeXcx620ARnnJtWdu9VWE"
    }
  },
  {
    "id": 18207,
    "name_no_copy": "с. Березань, Чорноморська громада, Миколаївський р-н, Миколаївська обл.",
    "lat": 46.74134069999999,
    "lng": 31.546774,
    "meta": {
      "google_maps_place_id": "ChIJn7Uyukh3xkAReOXgTRotZos"
    }
  },
  {
    "id": 28155,
    "name_no_copy": "с. Березина, Наркевицька громада, Хмельницький р-н, Хмельницька обл.",
    "lat": 49.4471469,
    "lng": 24.0636958,
    "meta": {
      "google_maps_place_id": "ChIJy2aSP7VhOkcR7AGTWCvj4So"
    }
  },
  {
    "id": 6977,
    "name_no_copy": "с. Березнуватка, Раївська громада, Синельниківський р-н, Дніпропетровська обл.",
    "lat": 48.24775030000001,
    "lng": 35.6008089,
    "meta": {
      "google_maps_place_id": "ChIJAcA97Jwe3EARHlrQAz8VWtQ"
    }
  },
  {
    "id": 31123,
    "name_no_copy": "с. Березовиця, Талалаївська громада, Прилуцький р-н, Чернігівська обл.",
    "lat": 50.8776451,
    "lng": 33.0366517,
    "meta": {
      "google_maps_place_id": "ChIJsz1acvgQKkEREkzJ_XBEfnI"
    }
  },
  {
    "id": 7812,
    "name_no_copy": "с. Березівка, Іллінівська громада, Краматорський р-н, Донецька обл.",
    "lat": 48.3465381,
    "lng": 37.5088829,
    "meta": {
      "google_maps_place_id": "ChIJd5hrvinN30ARmlJtgvZqX14"
    }
  },
  {
    "id": 29492,
    "name_no_copy": "с. Бересняги, Бобрицька громада, Черкаський р-н, Черкаська обл.",
    "lat": 49.7977286,
    "lng": 31.212878,
    "meta": {
      "google_maps_place_id": "ChIJmaxkOo521EARFD1c7na0Tf4"
    }
  },
  {
    "id": 19347,
    "name_no_copy": "с. Бессарабка, Великомихайлівська громада, Роздільнянський р-н, Одеська обл.",
    "lat": 47.1598675,
    "lng": 29.868061,
    "meta": {
      "google_maps_place_id": "ChIJz7F-ekEvyUARULXwIuFSuiI"
    }
  },
  {
    "id": 30141,
    "name_no_copy": "с. Бешківка, Корюківська громада, Корюківський р-н, Чернігівська обл.",
    "lat": 51.6775741,
    "lng": 32.2836054,
    "meta": {
      "google_maps_place_id": "ChIJuQlupdgmK0ERMCFbuEWneSs"
    }
  },
  {
    "id": 9789,
    "name_no_copy": "с. Бобрицька Болярка, Барашівська громада, Новоград-Волинський р-н, Житомирська обл.",
    "lat": 50.6362775,
    "lng": 28.0223715,
    "meta": {
      "google_maps_place_id": "ChIJtdz_BE1VKUcRLBZDnjGilMY"
    }
  },
  {
    "id": 30143,
    "name_no_copy": "с. Богдалівка, Корюківська громада, Корюківський р-н, Чернігівська обл.",
    "lat": 51.8278929,
    "lng": 32.5035038,
    "meta": {
      "google_maps_place_id": "ChIJ6dzPwPY7K0ERTsw4hV03Iv8"
    }
  },
  {
    "id": 21644,
    "name_no_copy": "с. Богушівка, Млинівська громада, Дубенський р-н, Рівненська обл.",
    "lat": 50.5859882,
    "lng": 25.7227313,
    "meta": {
      "google_maps_place_id": "ChIJwWQaeTB8L0cRoAo6v0zy2LY"
    }
  },
  {
    "id": 5815,
    "name_no_copy": "с. Болтишка, Божедарівська громада, Кам'янський р-н, Дніпропетровська обл.",
    "lat": 48.2357897,
    "lng": 34.1782891,
    "meta": {
      "google_maps_place_id": "ChIJ0X0rvgSl20AR2NCeIruBAGQ"
    }
  },
  {
    "id": 2959,
    "name_no_copy": "с-ще Бондаренкове, Маломаяцька громада, Ялтинський р-н, Автономна Республіка Крим обл.",
    "lat": 44.6097898,
    "lng": 34.3737067,
    "meta": {
      "google_maps_place_id": "ChIJV5hW_Yo160ARZspPGV9BEts"
    }
  },
  {
    "id": 7133,
    "name_no_copy": "с. Бондарне, Соледарська громада, Бахмутський р-н, Донецька обл.",
    "lat": 48.7416106,
    "lng": 37.9425084,
    "meta": {
      "google_maps_place_id": "ChIJL-0kRJvy30ARNLv3fUUaWJI"
    }
  },
  {
    "id": 30677,
    "name_no_copy": "с. Борисове, Коропська громада, Новгород-Сіверський р-н, Чернігівська обл.",
    "lat": 51.5632221,
    "lng": 33.0654647,
    "meta": {
      "google_maps_place_id": "ChIJaWR6wnGoK0ERqGMLBOIZFDw"
    }
  },
  {
    "id": 8668,
    "name_no_copy": "с. Борок, Коростишівська громада, Житомирський р-н, Житомирська обл.",
    "lat": 50.3085923,
    "lng": 29.2141739,
    "meta": {
      "google_maps_place_id": "ChIJMTTRi1OdLEcRzr_Yf8OrOQU"
    }
  },
  {
    "id": 31071,
    "name_no_copy": "с. Боротьба, Сухополов'янська громада, Прилуцький р-н, Чернігівська обл.",
    "lat": 50.6886368,
    "lng": 31.9267019,
    "meta": {
      "google_maps_place_id": "ChIJVwytKEKe1UARpFypQ_Fqls0"
    }
  },
  {
    "id": 30900,
    "name_no_copy": "с. Боханів, Варвинська громада, Прилуцький р-н, Чернігівська обл.",
    "lat": 50.4126893,
    "lng": 32.8983425,
    "meta": {
      "google_maps_place_id": "ChIJ89wkAioK1kARuN0djQtqnA8"
    }
  },
  {
    "id": 22529,
    "name_no_copy": "с. Боцманів, Кролевецька громада, Конотопський р-н, Сумська обл.",
    "lat": 51.53859380000001,
    "lng": 33.2959726,
    "meta": {
      "google_maps_place_id": "ChIJxWJudCWlK0ER5DTrER9fvhA"
    }
  },
  {
    "id": 21630,
    "name_no_copy": "с. Боцянівка, Мирогощанська громада, Дубенський р-н, Рівненська обл.",
    "lat": 50.4166581,
    "lng": 25.9746645,
    "meta": {
      "google_maps_place_id": "ChIJQe6Tpc2fL0cRSEnTL8B6Hzg"
    }
  },
  {
    "id": 31366,
    "name_no_copy": "с. Боярівка, Козелецька громада, Чернігівський р-н, Чернігівська обл.",
    "lat": 50.968826,
    "lng": 31.1578246,
    "meta": {
      "google_maps_place_id": "ChIJT6zh4uZO1UARctMDeBDY-do"
    }
  },
  {
    "id": 30832,
    "name_no_copy": "с. Брониви, Семенівська громада, Новгород-Сіверський р-н, Чернігівська обл.",
    "lat": 52.3156031,
    "lng": 32.4407175,
    "meta": {
      "google_maps_place_id": "ChIJKyUTV5Op1EYRzB9y-vbZg6g"
    }
  },
  {
    "id": 22087,
    "name_no_copy": "с. Брюшків, Костопільська громада, Рівненський р-н, Рівненська обл.",
    "lat": 51.0416236,
    "lng": 26.4244748,
    "meta": {
      "google_maps_place_id": "ChIJjapRks6yKEcRCNuwIc6Cegg"
    }
  },
  {
    "id": 22598,
    "name_no_copy": "с. Бувалине, Новослобідська громада, Конотопський р-н, Сумська обл.",
    "lat": 51.4008131,
    "lng": 34.1636581,
    "meta": {
      "google_maps_place_id": "ChIJ9RDCPQNgKUERNqcIah8eyXA"
    }
  },
  {
    "id": 8863,
    "name_no_copy": "с. Буглаки, Потіївська громада, Житомирський р-н, Житомирська обл.",
    "lat": 50.6983487,
    "lng": 29.0076737,
    "meta": {
      "google_maps_place_id": "ChIJ1Urdm5CXK0cR7qHpA5MvCag"
    }
  },
  {
    "id": 30425,
    "name_no_copy": "с. Буглаки, Бобровицька громада, Ніжинський р-н, Чернігівська обл.",
    "lat": 50.7539416,
    "lng": 31.647508,
    "meta": {
      "google_maps_place_id": "ChIJl9BaVXxy1UARcmsFnR0Rhls"
    }
  },
  {
    "id": 23711,
    "name_no_copy": "с. Бугор, Дружбівська громада, Шосткинський р-н, Сумська обл.",
    "lat": 52.032283,
    "lng": 33.9744119,
    "meta": {
      "google_maps_place_id": "ChIJH2gFja96LEERQP2bQt-mzck"
    }
  },
  {
    "id": 9434,
    "name_no_copy": "с. Буда-Голубієвичі, Народицька громада, Коростенський р-н, Житомирська обл.",
    "lat": 51.071237,
    "lng": 29.4534067,
    "meta": {
      "google_maps_place_id": "ChIJ6WEKpQNOKkcRkl1pjUaGlyA"
    }
  },
  {
    "id": 9753,
    "name_no_copy": "с. Будисько, Баранівська громада, Новоград-Волинський р-н, Житомирська обл.",
    "lat": 50.2326506,
    "lng": 27.7410993,
    "meta": {
      "google_maps_place_id": "ChIJz8zZNZYmLEcRZGAz9d7rlsE"
    }
  },
  {
    "id": 9724,
    "name_no_copy": "с. Будницьке, Чоповицька громада, Коростенський р-н, Житомирська обл.",
    "lat": 50.9215049,
    "lng": 28.9798561,
    "meta": {
      "google_maps_place_id": "ChIJieaWD_-3K0cR6u6P7rghksA"
    }
  },
  {
    "id": 7952,
    "name_no_copy": "с. Бузинівка, Олександрівська громада, Краматорський р-н, Донецька обл.",
    "lat": 48.6321209,
    "lng": 36.7625083,
    "meta": {
      "google_maps_place_id": "ChIJS6XitGQC30ARRvGSjM_CKzE"
    }
  },
  {
    "id": 17794,
    "name_no_copy": "с. Бузоварове, Веселинівська громада, Вознесенський р-н, Миколаївська обл.",
    "lat": 47.3654555,
    "lng": 31.4325336,
    "meta": {
      "google_maps_place_id": "ChIJP7ol47Niz0ARHv1fQzwhoxI"
    }
  },
  {
    "id": 17987,
    "name_no_copy": "с. Бузькі Пороги, Прибузька громада, Вознесенський р-н, Миколаївська обл.",
    "lat": 47.8611797,
    "lng": 31.1176018,
    "meta": {
      "google_maps_place_id": "ChIJnY_pKvGwz0ARqut2LZtjjik"
    }
  },
  {
    "id": 22867,
    "name_no_copy": "с. Буймерівка, Чернеччинська громада, Охтирський р-н, Сумська обл.",
    "lat": 50.2812636,
    "lng": 34.8086752,
    "meta": {
      "google_maps_place_id": "ChIJ-Q4uijEXKEERcDsJ3920GlA"
    }
  },
  {
    "id": 9033,
    "name_no_copy": "с. Буймир, Станишівська громада, Житомирський р-н, Житомирська обл.",
    "lat": 50.2202297,
    "lng": 28.9483391,
    "meta": {
      "google_maps_place_id": "ChIJJbANDgmGLEcR0kHpwD3xqYM"
    }
  },
  {
    "id": 30902,
    "name_no_copy": "с. Булавівщина, Варвинська громада, Прилуцький р-н, Чернігівська обл.",
    "lat": 50.5199653,
    "lng": 32.7975283,
    "meta": {
      "google_maps_place_id": "ChIJBYF6d6fk1UARPtuxLMceP2U"
    }
  },
  {
    "id": 18253,
    "name_no_copy": "с. Булацелове, Благодатненська громада, Первомайський р-н, Миколаївська обл.",
    "lat": 47.9860425,
    "lng": 31.109089,
    "meta": {
      "google_maps_place_id": "ChIJ64wCWoa1z0AR8GAZ73TAxZw"
    }
  },
  {
    "id": 9435,
    "name_no_copy": "с. Булів, Народицька громада, Коростенський р-н, Житомирська обл.",
    "lat": 51.1728087,
    "lng": 29.0417436,
    "meta": {
      "google_maps_place_id": "ChIJsyo06NYzKkcRdgDED3YngKc"
    }
  },
  {
    "id": 19033,
    "name_no_copy": "с. Бурлача Балка, Чорноморська громада, Одеський р-н, Одеська обл.",
    "lat": 46.3425607,
    "lng": 30.6619673,
    "meta": {
      "google_maps_place_id": "ChIJWaTR9PTLx0AR1GjXDdqb8OE"
    }
  },
  {
    "id": 23507,
    "name_no_copy": "с. Бурчак, Миколаївська громада, Сумський р-н, Сумська обл.",
    "lat": 51.03745989999999,
    "lng": 34.5675087,
    "meta": {
      "google_maps_place_id": "ChIJRdVxBVkOKUERAs-xWoxzfko"
    }
  },
  {
    "id": 22800,
    "name_no_copy": "с. Бурячиха, Комишанська громада, Охтирський р-н, Сумська обл.",
    "lat": 50.2709203,
    "lng": 34.57651329999999,
    "meta": {
      "google_maps_place_id": "ChIJd7OrVFoiKEER5Epwrlmj7Ro"
    }
  },
  {
    "id": 17612,
    "name_no_copy": "с. Бурячки, Казанківська громада, Баштанський р-н, Миколаївська обл.",
    "lat": 47.6107053,
    "lng": 32.9653137,
    "meta": {
      "google_maps_place_id": "ChIJ92b4ECIoxUARQP8ku2ICg-E"
    }
  },
  {
    "id": 29493,
    "name_no_copy": "с. Бучак, Бобрицька громада, Черкаський р-н, Черкаська обл.",
    "lat": 49.8647804,
    "lng": 31.4334443,
    "meta": {
      "google_maps_place_id": "ChIJyVAo4GBt1EARYLGLmJqYijA"
    }
  },
  {
    "id": 30661,
    "name_no_copy": "с. Бідин, Талалаївська громада, Ніжинський р-н, Чернігівська обл.",
    "lat": 50.9838902,
    "lng": 32.0053513,
    "meta": {
      "google_maps_place_id": "ChIJ8-dQE2KCKkEROEBhCN5_6v8"
    }
  },
  {
    "id": 6658,
    "name_no_copy": "с. Білозерське, Юр'ївська громада, Павлоградський р-н, Дніпропетровська обл.",
    "lat": 48.866952,
    "lng": 35.8299873,
    "meta": {
      "google_maps_place_id": "ChIJPXjMU1Up2UAR7k38TYdBTgs"
    }
  },
  {
    "id": 8666,
    "name_no_copy": "с. Більківці, Коростишівська громада, Житомирський р-н, Житомирська обл.",
    "lat": 50.36347929999999,
    "lng": 28.9773902,
    "meta": {
      "google_maps_place_id": "ChIJ20pwCgaALEcRCoIf3mOzD3U"
    }
  },
  {
    "id": 6860,
    "name_no_copy": "с. Біляківка, Межівська громада, Синельниківський р-н, Дніпропетровська обл.",
    "lat": 48.1866535,
    "lng": 36.8771411,
    "meta": {
      "google_maps_place_id": "ChIJca4YGhVq3kARJt-r6_qzeCs"
    }
  },
  {
    "id": 3037,
    "name_no_copy": "с. В'язовиця, Іллінецька громада, Вінницький р-н, Вінницька обл.",
    "lat": 49.0452072,
    "lng": 29.1302156,
    "meta": {
      "google_maps_place_id": "ChIJ51YXqoGk0kARQrLttCtXHVg"
    }
  },
  {
    "id": 19348,
    "name_no_copy": "с. Вакарське, Великомихайлівська громада, Роздільнянський р-н, Одеська обл.",
    "lat": 47.059659,
    "lng": 29.9337348,
    "meta": {
      "google_maps_place_id": "ChIJRZD6_57YyEAR0BIbwEoPtnQ"
    }
  },
  {
    "id": 8777,
    "name_no_copy": "с. Валки, Новоборівська громада, Житомирський р-н, Житомирська обл.",
    "lat": 50.694456,
    "lng": 28.5891488,
    "meta": {
      "google_maps_place_id": "ChIJpzA4N8XtK0cRpq3cyNesFa0"
    }
  },
  {
    "id": 15448,
    "name_no_copy": "с. Валуйки, Шульгинська громада, Старобільський р-н, Луганська обл.",
    "lat": 49.0894853,
    "lng": 38.80662410000001,
    "meta": {
      "google_maps_place_id": "ChIJFz8WsNwkIEERoNkZoPo3PEo"
    }
  },
  {
    "id": 6661,
    "name_no_copy": "с. Варламівка, Юр'ївська громада, Павлоградський р-н, Дніпропетровська обл.",
    "lat": 48.80610309999999,
    "lng": 36.079544,
    "meta": {
      "google_maps_place_id": "ChIJd1ue-Z3W3kARkL8xA8FHKcE"
    }
  },
  {
    "id": 23712,
    "name_no_copy": "с. Василець, Дружбівська громада, Шосткинський р-н, Сумська обл.",
    "lat": 52.030297,
    "lng": 33.8909929,
    "meta": {
      "google_maps_place_id": "ChIJdSZJmgZ7LEERlHrcOIfXXXY"
    }
  },
  {
    "id": 21110,
    "name_no_copy": "с. Васильці, Новоселівська громада, Полтавський р-н, Полтавська обл.",
    "lat": 49.7529119,
    "lng": 34.7579047,
    "meta": {
      "google_maps_place_id": "ChIJLbjPGyoZ2EARZNHN9kFCHak"
    }
  },
  {
    "id": 23753,
    "name_no_copy": "с. Василівське, Зноб-Новгородська громада, Шосткинський р-н, Сумська обл.",
    "lat": 52.2772436,
    "lng": 33.4881287,
    "meta": {
      "google_maps_place_id": "ChIJQ17RmkWRLEER6Ci8KqZ75Do"
    }
  },
  {
    "id": 9436,
    "name_no_copy": "с. Васьківці, Народицька громада, Коростенський р-н, Житомирська обл.",
    "lat": 51.1121823,
    "lng": 29.3877974,
    "meta": {
      "google_maps_place_id": "ChIJb_Y03sNOKkcR_MvT5b-O-eo"
    }
  },
  {
    "id": 31043,
    "name_no_copy": "с. Васюків, Срібнянська громада, Прилуцький р-н, Чернігівська обл.",
    "lat": 50.6739751,
    "lng": 33.0694516,
    "meta": {
      "google_maps_place_id": "ChIJaXPnAvEAKkER4qFnUiyKFsk"
    }
  },
  {
    "id": 23508,
    "name_no_copy": "с. Васюківщина, Миколаївська громада, Сумський р-н, Сумська обл.",
    "lat": 50.976198,
    "lng": 34.6699674,
    "meta": {
      "google_maps_place_id": "ChIJu4qjIsgFKUER3ML-XmVzjeQ"
    }
  },
  {
    "id": 9681,
    "name_no_copy": "с. Велень, Ушомирська громада, Коростенський р-н, Житомирська обл.",
    "lat": 50.973023,
    "lng": 28.4487786,
    "meta": {
      "google_maps_place_id": "ChIJcRMZYrTYK0cRfAftskZf9tI"
    }
  },
  {
    "id": 16547,
    "name_no_copy": "с. Велика Хвороща, Новокалинівська громада, Самбірський р-н, Львівська обл.",
    "lat": 49.5238403,
    "lng": 23.5166072,
    "meta": {
      "google_maps_place_id": "ChIJZUWr8EqrO0cRiujNrBvFGVI"
    }
  },
  {
    "id": 8728,
    "name_no_copy": "с. Великобраталівське, Любарська громада, Житомирський р-н, Житомирська обл.",
    "lat": 49.9997642,
    "lng": 27.9141847,
    "meta": {
      "google_maps_place_id": "ChIJ6fGlWaM1LEcRki6o6bRJLPA"
    }
  },
  {
    "id": 13780,
    "name_no_copy": "с. Великодрюкове, Бобринецька громада, Кропивницький р-н, Кіровоградська обл.",
    "lat": 48.0777648,
    "lng": 32.0496161,
    "meta": {
      "google_maps_place_id": "ChIJyVcDfLgC0EARIDubGSVu9Ec"
    }
  },
  {
    "id": 9437,
    "name_no_copy": "с. Великі Міньки, Народицька громада, Коростенський р-н, Житомирська обл.",
    "lat": 51.0908804,
    "lng": 29.3093708,
    "meta": {
      "google_maps_place_id": "ChIJWyipB_FLKkcRiBarbpaL7z4"
    }
  },
  {
    "id": 9792,
    "name_no_copy": "с. Верби, Барашівська громада, Новоград-Волинський р-н, Житомирська обл.",
    "lat": 50.6511971,
    "lng": 27.9570289,
    "meta": {
      "google_maps_place_id": "ChIJG-2_98pUKUcRDCsPd6g3trQ"
    }
  },
  {
    "id": 26778,
    "name_no_copy": "с. Вереміївка, Високопільська громада, Бериславський р-н, Херсонська обл.",
    "lat": 47.4045509,
    "lng": 33.574012,
    "meta": {
      "google_maps_place_id": "ChIJHW5rQ2-wxEARRLtqDmFXr3Y"
    }
  },
  {
    "id": 11556,
    "name_no_copy": "с. Верхньодрагунське, Смирновська громада, Пологівський р-н, Запорізька обл.",
    "lat": 47.3022943,
    "lng": 36.4412801,
    "meta": {
      "google_maps_place_id": "ChIJM5sofgx_50ARlniSUy3HjT8"
    }
  },
  {
    "id": 9507,
    "name_no_copy": "с. Верхня Рудня, Овруцька громада, Коростенський р-н, Житомирська обл.",
    "lat": 51.5635691,
    "lng": 28.5262211,
    "meta": {
      "google_maps_place_id": "ChIJTVmg7h6VKUcR6s5Luy6T5fQ"
    }
  },
  {
    "id": 7080,
    "name_no_copy": "с. Вершина, Бахмутська громада, Бахмутський р-н, Донецька обл.",
    "lat": 48.51951469999999,
    "lng": 38.115284,
    "meta": {
      "google_maps_place_id": "ChIJJw2411Hg30ARnXByf8Z5F9U"
    }
  },
  {
    "id": 7352,
    "name_no_copy": "с. Весела Долина, Вуглегірська громада, Горлівський р-н, Донецька обл.",
    "lat": 48.2117496,
    "lng": 38.4307349,
    "meta": {
      "google_maps_place_id": "ChIJQU63PodC4EARMvXSunCMy0U"
    }
  },
  {
    "id": 30360,
    "name_no_copy": "с. Веселівка, Батуринська громада, Ніжинський р-н, Чернігівська обл.",
    "lat": 48.6151624,
    "lng": 29.8622529,
    "meta": {
      "google_maps_place_id": "ChIJGfK40PCLzUARgBgmCEXsgrg"
    }
  },
  {
    "id": 31286,
    "name_no_copy": "с. Вир, Добрянська громада, Чернігівський р-н, Чернігівська обл.",
    "lat": 51.9158537,
    "lng": 30.9604698,
    "meta": {
      "google_maps_place_id": "ChIJAzhUeRwE1UYROO_9FdSXAvA"
    }
  },
  {
    "id": 15138,
    "name_no_copy": "с. Високе, Троїцька громада, Сватівський р-н, Луганська обл.",
    "lat": 49.8342464,
    "lng": 38.2505619,
    "meta": {
      "google_maps_place_id": "ChIJL9K3ZXsWIUERoAtGayVqEdE"
    }
  },
  {
    "id": 6394,
    "name_no_copy": "с. Високопіль, Першотравневська громада, Нікопольський р-н, Дніпропетровська обл.",
    "lat": 47.8456071,
    "lng": 34.2899351,
    "meta": {
      "google_maps_place_id": "ChIJH2_jHCVl20AR_qa4hW5_CQc"
    }
  },
  {
    "id": 24322,
    "name_no_copy": "с. Вишеньки, Золотниківська громада, Тернопільський р-н, Тернопільська обл.",
    "lat": 49.2261739,
    "lng": 25.4477119,
    "meta": {
      "google_maps_place_id": "ChIJRWmUKbNUMEcReEUC6Bu9g4U"
    }
  },
  {
    "id": 5965,
    "name_no_copy": "с. Вишневе, Криничанська громада, Кам'янський р-н, Дніпропетровська обл.",
    "lat": 48.498189,
    "lng": 34.4156769,
    "meta": {
      "google_maps_place_id": "ChIJg0KO267P20AR5KI6-2ZEAHQ"
    }
  },
  {
    "id": 9754,
    "name_no_copy": "с. Вишнівка, Баранівська громада, Новоград-Волинський р-н, Житомирська обл.",
    "lat": 50.3622607,
    "lng": 27.5546152,
    "meta": {
      "google_maps_place_id": "ChIJF4vEXuWYLkcRgpNDGONfODA"
    }
  },
  {
    "id": 11165,
    "name_no_copy": "с. Вовче, Кирилівська громада, Мелітопольський р-н, Запорізька обл.",
    "lat": 46.4686586,
    "lng": 35.1723481,
    "meta": {
      "google_maps_place_id": "ChIJqQuVKTwo6EARIkjhd3cSaPA"
    }
  },
  {
    "id": 7882,
    "name_no_copy": "с. Вовчий Яр, Лиманська громада, Краматорський р-н, Донецька обл.",
    "lat": 49.2017299,
    "lng": 37.6627087,
    "meta": {
      "google_maps_place_id": "ChIJ-a_xqJKFIEER3Eshg9iuVjs"
    }
  },
  {
    "id": 22425,
    "name_no_copy": "с. Вовчик, Бочечківська громада, Конотопський р-н, Сумська обл.",
    "lat": 51.3542085,
    "lng": 33.4651708,
    "meta": {
      "google_maps_place_id": "ChIJRxZXf4nJK0ERdjQfMl-acis"
    }
  },
  {
    "id": 7813,
    "name_no_copy": "с. Водяне Друге, Іллінівська громада, Краматорський р-н, Донецька обл.",
    "lat": 48.3395484,
    "lng": 37.5101224,
    "meta": {
      "google_maps_place_id": "ChIJQxfrIy3N30ARfutmb7vRTa8"
    }
  },
  {
    "id": 9646,
    "name_no_copy": "с. Возлякове, Словечанська громада, Коростенський р-н, Житомирська обл.",
    "lat": 51.2104899,
    "lng": 28.30199,
    "meta": {
      "google_maps_place_id": "ChIJL7q4CiF3KUcR1CtTiGiRJLk"
    }
  },
  {
    "id": 17560,
    "name_no_copy": "с. Волна, Володимирівська громада, Баштанський р-н, Миколаївська обл.",
    "lat": 47.5776816,
    "lng": 32.9685191,
    "meta": {
      "google_maps_place_id": "ChIJpZGPZxjYxEAREGHFnu4Ra7A"
    }
  },
  {
    "id": 6012,
    "name_no_copy": "с. Володимирівка, Лихівська громада, Кам'янський р-н, Дніпропетровська обл.",
    "lat": 48.6131247,
    "lng": 33.8384205,
    "meta": {
      "google_maps_place_id": "ChIJ2Rv7WzM52kAREsslGP2D6h0"
    }
  },
  {
    "id": 16570,
    "name_no_copy": "с. Волянка, Ралівська громада, Самбірський р-н, Львівська обл.",
    "lat": 49.4107587,
    "lng": 23.1711139,
    "meta": {
      "google_maps_place_id": "ChIJb5Mo67GwO0cR2Fpbw-rV_hg"
    }
  },
  {
    "id": 6733,
    "name_no_copy": "с. Воронізьке, Васильківська громада, Синельниківський р-н, Дніпропетровська обл.",
    "lat": 48.2554857,
    "lng": 35.7367738,
    "meta": {
      "google_maps_place_id": "ChIJa76SSeAf3EARIr2IMdXJUBs"
    }
  },
  {
    "id": 23302,
    "name_no_copy": "с. Воропай, Краснопільська громада, Сумський р-н, Сумська обл.",
    "lat": 50.832118,
    "lng": 35.2106053,
    "meta": {
      "google_maps_place_id": "ChIJgdJ2bbzxKEERdAhBswzyEnc"
    }
  },
  {
    "id": 22897,
    "name_no_copy": "с. Всадки, Чупахівська громада, Охтирський р-н, Сумська обл.",
    "lat": 50.3891071,
    "lng": 34.6124517,
    "meta": {
      "google_maps_place_id": "ChIJAUv3G_I7KEERgvGdBh7NY24"
    }
  },
  {
    "id": 7346,
    "name_no_copy": "м. Вуглегірськ, Вуглегірська громада, Горлівський р-н, Донецька обл.",
    "lat": 48.3115536,
    "lng": 38.2778412,
    "meta": {
      "google_maps_place_id": "ChIJqVKlI3Ru4EAR9ygd-Huv1tM"
    }
  },
  {
    "id": 11056,
    "name_no_copy": "с. Вівчарне, Павлівська громада, Запорізький р-н, Запорізька обл.",
    "lat": 48.0540356,
    "lng": 35.5627839,
    "meta": {
      "google_maps_place_id": "ChIJ3cqFqCw83EARpEKB4O_qZmQ"
    }
  },
  {
    "id": 8866,
    "name_no_copy": "с. Вівче, Потіївська громада, Житомирський р-н, Житомирська обл.",
    "lat": 50.6325344,
    "lng": 29.0102958,
    "meta": {
      "google_maps_place_id": "ChIJexDReiSaK0cR5rkGC1adNXE"
    }
  },
  {
    "id": 19083,
    "name_no_copy": "с. Відрада, Балтська громада, Подільський р-н, Одеська обл.",
    "lat": 47.8693294,
    "lng": 29.5503579,
    "meta": {
      "google_maps_place_id": "ChIJwTQnIC8kzEARByY5nWNAnYA"
    }
  },
  {
    "id": 6325,
    "name_no_copy": "с. Вільне Життя, Софіївська громада, Криворізький р-н, Дніпропетровська обл.",
    "lat": 48.0694005,
    "lng": 34.093245,
    "meta": {
      "google_maps_place_id": "ChIJNYtFWDcK20AReGI1klD-0a8"
    }
  },
  {
    "id": 17958,
    "name_no_copy": "с. Вільний Яр, Олександрівська громада, Вознесенський р-н, Миколаївська обл.",
    "lat": 47.7609083,
    "lng": 31.438029,
    "meta": {
      "google_maps_place_id": "ChIJy04SbP2Wz0ARxLfrIn4slKI"
    }
  },
  {
    "id": 9439,
    "name_no_copy": "с. Вільхова, Народицька громада, Коростенський р-н, Житомирська обл.",
    "lat": 51.3574801,
    "lng": 29.3704703,
    "meta": {
      "google_maps_place_id": "ChIJBfdWzyY-KkcRxie3Y2M83jk"
    }
  },
  {
    "id": 27865,
    "name_no_copy": "с. Вільшани, Волочиська громада, Хмельницький р-н, Хмельницька обл.",
    "lat": 49.5986379,
    "lng": 26.261635,
    "meta": {
      "google_maps_place_id": "ChIJK13Mn8PeMUcRKEkRSJu9QIE"
    }
  },
  {
    "id": 21114,
    "name_no_copy": "с. Гаврилки, Новоселівська громада, Полтавський р-н, Полтавська обл.",
    "lat": 49.7035698,
    "lng": 34.851001,
    "meta": {
      "google_maps_place_id": "ChIJnRoFo4gX2EAR2oYpbYZnmCs"
    }
  },
  {
    "id": 30682,
    "name_no_copy": "с. Галичівка, Коропська громада, Новгород-Сіверський р-н, Чернігівська обл.",
    "lat": 51.52739330000001,
    "lng": 32.819042,
    "meta": {
      "google_maps_place_id": "ChIJz9pyFW8BK0ER-DPLFKI3cjQ"
    }
  },
  {
    "id": 23303,
    "name_no_copy": "с. Гапонівка, Краснопільська громада, Сумський р-н, Сумська обл.",
    "lat": 50.67792379999999,
    "lng": 35.1162925,
    "meta": {
      "google_maps_place_id": "ChIJG9sFPAxfKEERMGuFQzDkXv4"
    }
  },
  {
    "id": 30308,
    "name_no_copy": "с. Гапішківка, Сосницька громада, Корюківський р-н, Чернігівська обл.",
    "lat": 51.51865489999999,
    "lng": 32.5597562,
    "meta": {
      "google_maps_place_id": "ChIJTVH8uOziKkERrsmE6chUZ4g"
    }
  },
  {
    "id": 30428,
    "name_no_copy": "с. Гарт, Бобровицька громада, Ніжинський р-н, Чернігівська обл.",
    "lat": 50.6742401,
    "lng": 31.4982665,
    "meta": {
      "google_maps_place_id": "ChIJCTdx7xAS1UARLAlKVuwjBdc"
    }
  },
  {
    "id": 31221,
    "name_no_copy": "с. Гасичівка, Городнянська громада, Чернігівський р-н, Чернігівська обл.",
    "lat": 52.0148832,
    "lng": 31.7768111,
    "meta": {
      "google_maps_place_id": "ChIJb9KPVonE1EYR-KlRv-h59SM"
    }
  },
  {
    "id": 30836,
    "name_no_copy": "с. Гаті, Семенівська громада, Новгород-Сіверський р-н, Чернігівська обл.",
    "lat": 52.2390662,
    "lng": 32.4044527,
    "meta": {
      "google_maps_place_id": "ChIJMUi73BOs1EYRgp0sS9HeKOc"
    }
  },
  {
    "id": 27551,
    "name_no_copy": "с. Гелетина, Китайгородська громада, Кам'янець-Подільський р-н, Хмельницька обл.",
    "lat": 48.71044819999999,
    "lng": 26.8060866,
    "meta": {
      "google_maps_place_id": "ChIJrf3mbgWxM0cR0B7ma7sspnM"
    }
  },
  {
    "id": 18072,
    "name_no_copy": "с. Глибоке, Коблівська громада, Миколаївський р-н, Миколаївська обл.",
    "lat": 46.6896505,
    "lng": 31.2788573,
    "meta": {
      "google_maps_place_id": "ChIJoW_xbwNtxkAR0uGyGa6rEKI"
    }
  },
  {
    "id": 30248,
    "name_no_copy": "с. Глибокий Ріг, Сновська громада, Корюківський р-н, Чернігівська обл.",
    "lat": 51.8979689,
    "lng": 32.1168584,
    "meta": {
      "google_maps_place_id": "ChIJA6R2sMgyK0ERgH776e7HUpg"
    }
  },
  {
    "id": 31126,
    "name_no_copy": "с. Глинське, Талалаївська громада, Прилуцький р-н, Чернігівська обл.",
    "lat": 50.9423446,
    "lng": 32.9893988,
    "meta": {
      "google_maps_place_id": "ChIJh3BEHQsUKkERXh_nOK_D4iE"
    }
  },
  {
    "id": 29494,
    "name_no_copy": "с. Глинча, Бобрицька громада, Черкаський р-н, Черкаська обл.",
    "lat": 49.8391847,
    "lng": 31.3770821,
    "meta": {
      "google_maps_place_id": "ChIJO5iEN_dy1EARgmfVFWRnZ08"
    }
  },
  {
    "id": 21115,
    "name_no_copy": "с. Глоби, Новоселівська громада, Полтавський р-н, Полтавська обл.",
    "lat": 49.6888132,
    "lng": 34.8157598,
    "meta": {
      "google_maps_place_id": "ChIJacu47QYY2EARllp-sZqRKP8"
    }
  },
  {
    "id": 15140,
    "name": "с. Глотівка, Троїцька громада, Сватівський р-н, Луганська обл.",
    "lat": 49.790529,
    "lng": 38.085257,
    "meta": {
      "google_maps_place_id": "ChIJo6PESqIiIUER3Pm2DSFgRMI"
    }
  },
  {
    "id": 28224,
    "name_no_copy": "с. Глушковецьке, Солобковецька громада, Хмельницький р-н, Хмельницька обл.",
    "lat": 49.1310368,
    "lng": 26.901743,
    "meta": {
      "google_maps_place_id": "ChIJw7GxBgo-MkcRnH7rwJnvl6o"
    }
  },
  {
    "id": 5694,
    "name_no_copy": "с. Голубинівка, Святовасилівська громада, Дніпровський р-н, Дніпропетровська обл.",
    "lat": 48.18122839999999,
    "lng": 34.4511678,
    "meta": {
      "google_maps_place_id": "ChIJKeXZO3uX20ARBjk-m1SF_SQ"
    }
  },
  {
    "id": 14675,
    "name_no_copy": "м. Голубівка, Кадіївська громада, Алчевський р-н, Луганська обл.",
    "lat": 48.6354729,
    "lng": 38.6373936,
    "meta": {
      "google_maps_place_id": "ChIJp5wRFXoC4EARiGCwC_FR2I8"
    }
  },
  {
    "id": 6668,
    "name_no_copy": "с. Голубівське, Юр'ївська громада, Павлоградський р-н, Дніпропетровська обл.",
    "lat": 48.876548,
    "lng": 35.8374214,
    "meta": {
      "google_maps_place_id": "ChIJwyW4nFkp2UAR0gVsQxqtC8s"
    }
  },
  {
    "id": 9442,
    "name_no_copy": "с. Голубієвичі, Народицька громада, Коростенський р-н, Житомирська обл.",
    "lat": 51.0841231,
    "lng": 29.411862,
    "meta": {
      "google_maps_place_id": "ChIJNxHYD31OKkcR8qMby99a-Hk"
    }
  },
  {
    "id": 21117,
    "name_no_copy": "с. Гонтарі, Новоселівська громада, Полтавський р-н, Полтавська обл.",
    "lat": 49.7686513,
    "lng": 34.7118685,
    "meta": {
      "google_maps_place_id": "ChIJQ-2zOx0f2EARCLRkqhUyXf0"
    }
  },
  {
    "id": 21647,
    "name_no_copy": "с. Гончариха, Млинівська громада, Дубенський р-н, Рівненська обл.",
    "lat": 50.514759,
    "lng": 25.7953481,
    "meta": {
      "google_maps_place_id": "ChIJm0dxFE14L0cRHPJ5JZEOGcs"
    }
  },
  {
    "id": 24326,
    "name_no_copy": "с. Гончарки, Золотниківська громада, Тернопільський р-н, Тернопільська обл.",
    "lat": 49.33142549999999,
    "lng": 25.4188251,
    "meta": {
      "google_maps_place_id": "ChIJ5b-H6QZSMEcRjPBroW5vwHY"
    }
  },
  {
    "id": 15269,
    "name_no_copy": "с. Гончарове, Біловодська громада, Старобільський р-н, Луганська обл.",
    "lat": 49.2355019,
    "lng": 39.4304667,
    "meta": {
      "google_maps_place_id": "ChIJhTFPdgl9H0ERSBrHoKMHeo4"
    }
  },
  {
    "id": 19164,
    "name_no_copy": "с. Гор'ївка, Куяльницька громада, Подільський р-н, Одеська обл.",
    "lat": 47.6087378,
    "lng": 29.6495587,
    "meta": {
      "google_maps_place_id": "ChIJQwCTbe2kzkARltHvXPNUG9E"
    }
  },
  {
    "id": 28076,
    "name_no_copy": "с. Горбасів, Летичівська громада, Хмельницький р-н, Хмельницька обл.",
    "lat": 49.41268669999999,
    "lng": 27.5489992,
    "meta": {
      "google_maps_place_id": "ChIJIxnA-CiJLUcRZJm_KYchSJs"
    }
  },
  {
    "id": 17470,
    "name_no_copy": "с. Горожене, Баштанська громада, Баштанський р-н, Миколаївська обл.",
    "lat": 47.4534241,
    "lng": 32.4956644,
    "meta": {
      "google_maps_place_id": "ChIJfe_jWWoaxUARxu56TLjkw4M"
    }
  },
  {
    "id": 21034,
    "name_no_copy": "с. Грабівщина, Михайлівська громада, Полтавський р-н, Полтавська обл.",
    "lat": 49.2346273,
    "lng": 34.8732459,
    "meta": {
      "google_maps_place_id": "ChIJLyMlhI-t2UARTtQKYjdaZNU"
    }
  },
  {
    "id": 22735,
    "name_no_copy": "с. Градське, Боромлянська громада, Охтирський р-н, Сумська обл.",
    "lat": 50.723731,
    "lng": 34.9442233,
    "meta": {
      "google_maps_place_id": "ChIJIeIVBCxYKEERBPEMV8QcbB8"
    }
  },
  {
    "id": 6013,
    "name_no_copy": "с. Грамівка, Лихівська громада, Кам'янський р-н, Дніпропетровська обл.",
    "lat": 48.6422648,
    "lng": 33.7644865,
    "meta": {
      "google_maps_place_id": "ChIJswi7FWo-2kAR0kh8sTgCesc"
    }
  },
  {
    "id": 4078,
    "name_no_copy": "с. Гранітне, Брацлавська громада, Тульчинський р-н, Вінницька обл.",
    "lat": 48.8544905,
    "lng": 28.9992382,
    "meta": {
      "google_maps_place_id": "ChIJ8RgknNFdzUARxH7TySifOSU"
    }
  },
  {
    "id": 19165,
    "name_no_copy": "с. Грекове Друге, Куяльницька громада, Подільський р-н, Одеська обл.",
    "lat": 47.6650261,
    "lng": 29.7286929,
    "meta": {
      "google_maps_place_id": "ChIJmWffM92izkAR6rYyKo0hfI8"
    }
  },
  {
    "id": 17579,
    "name_no_copy": "с. Гречанівка, Горохівська громада, Баштанський р-н, Миколаївська обл.",
    "lat": 46.9368747,
    "lng": 32.8123811,
    "meta": {
      "google_maps_place_id": "ChIJ5Z3yC51oxEARcMIpLI_G-Gk"
    }
  },
  {
    "id": 22537,
    "name_no_copy": "с. Грибаньове, Кролевецька громада, Конотопський р-н, Сумська обл.",
    "lat": 51.6191769,
    "lng": 33.3286214,
    "meta": {
      "google_maps_place_id": "ChIJwVoVwbqjK0ERYj5MkKelUcA"
    }
  },
  {
    "id": 8867,
    "name_no_copy": "с. Гришківка, Потіївська громада, Житомирський р-н, Житомирська обл.",
    "lat": 50.5654298,
    "lng": 29.0594207,
    "meta": {
      "google_maps_place_id": "ChIJLXOJRpGcK0cRhFByU-NvK7c"
    }
  },
  {
    "id": 7354,
    "name_no_copy": "с-ще Грозне, Вуглегірська громада, Горлівський р-н, Донецька обл.",
    "lat": 48.2936432,
    "lng": 38.3105043,
    "meta": {
      "google_maps_place_id": "ChIJaYaSCpBu4EARwrOpsYQ49xM"
    }
  },
  {
    "id": 5821,
    "name_no_copy": "с. Грузинівка, Божедарівська громада, Кам'янський р-н, Дніпропетровська обл.",
    "lat": 48.20263019999999,
    "lng": 34.0806797,
    "meta": {
      "google_maps_place_id": "ChIJnVIXG_-l20ARbFmYpiOj7bo"
    }
  },
  {
    "id": 22900,
    "name_no_copy": "с. Грунька, Чупахівська громада, Охтирський р-н, Сумська обл.",
    "lat": 50.4745485,
    "lng": 34.6288287,
    "meta": {
      "google_maps_place_id": "ChIJ_0j_uxQ4KEERmvJMYbL-MKQ"
    }
  },
  {
    "id": 19355,
    "name_no_copy": "с. Грушка, Великомихайлівська громада, Роздільнянський р-н, Одеська обл.",
    "lat": 47.1436938,
    "lng": 29.6440147,
    "meta": {
      "google_maps_place_id": "ChIJRdPVlL07yUARNL94uaFor8Y"
    }
  },
  {
    "id": 6068,
    "name_no_copy": "с. Грушуватка, Саксаганська громада, Кам'янський р-н, Дніпропетровська обл.",
    "lat": 48.3542496,
    "lng": 33.7909237,
    "meta": {
      "google_maps_place_id": "ChIJSZu7L69R2kARE6HCqX1aYFk"
    }
  },
  {
    "id": 7040,
    "name_no_copy": "с. Грякувате, Славгородська громада, Синельниківський р-н, Дніпропетровська обл.",
    "lat": 48.2224417,
    "lng": 35.2969493,
    "meta": {
      "google_maps_place_id": "ChIJlwoU6XoP3EARTDIUEN_UNbo"
    }
  },
  {
    "id": 21587,
    "name_no_copy": "с. Гусари, Козинська громада, Дубенський р-н, Рівненська обл.",
    "lat": 50.2185835,
    "lng": 25.4589233,
    "meta": {
      "google_maps_place_id": "ChIJZVFMK8KML0cRhPXX4zEW7ZY"
    }
  },
  {
    "id": 30685,
    "name_no_copy": "с. Гута, Коропська громада, Новгород-Сіверський р-н, Чернігівська обл.",
    "lat": 51.619779,
    "lng": 32.8488548,
    "meta": {
      "google_maps_place_id": "ChIJNWQk-JgFK0ERIAoFUOJoqJ4"
    }
  },
  {
    "id": 27458,
    "name_no_copy": "с. Гута-Блищанівська, Дунаєвецька громада, Кам'янець-Подільський р-н, Хмельницька обл.",
    "lat": 48.7794885,
    "lng": 26.8324481,
    "meta": {
      "google_maps_place_id": "ChIJscAvVX6zM0cRfOYVUQyW1kY"
    }
  },
  {
    "id": 9795,
    "name_no_copy": "с. Гута-Бобрицька, Барашівська громада, Новоград-Волинський р-н, Житомирська обл.",
    "lat": 50.651584,
    "lng": 28.157384,
    "meta": {
      "google_maps_place_id": "ChIJ2VX6ifr-K0cRVNz6aLy9aQs"
    }
  },
  {
    "id": 9248,
    "name_no_copy": "с. Гута-Добринь, Іршанська громада, Коростенський р-н, Житомирська обл.",
    "lat": 50.71078379999999,
    "lng": 28.7523076,
    "meta": {
      "google_maps_place_id": "ChIJt1zK4KmUK0cRbkgEogLyhlA"
    }
  },
  {
    "id": 9727,
    "name_no_copy": "с. Гутянське, Чоповицька громада, Коростенський р-н, Житомирська обл.",
    "lat": 50.9096268,
    "lng": 28.9712604,
    "meta": {
      "google_maps_place_id": "ChIJwyMF_gi4K0cRrIhL2Np2XRQ"
    }
  },
  {
    "id": 19353,
    "name_no_copy": "с. Гірське, Великомихайлівська громада, Роздільнянський р-н, Одеська обл.",
    "lat": 46.96996840000001,
    "lng": 29.93070479999999,
    "meta": {
      "google_maps_place_id": "ChIJ35Qd6T3eyEAR71wXrGi3eiU"
    }
  },
  {
    "id": 7355,
    "name_no_copy": "с-ще Данилове, Вуглегірська громада, Горлівський р-н, Донецька обл.",
    "lat": 48.2213824,
    "lng": 38.4644885,
    "meta": {
      "google_maps_place_id": "ChIJZX3YmmxC4EARBIKh_nzQMOI"
    }
  },
  {
    "id": 23049,
    "name_no_copy": "с. Дараганове, Недригайлівська громада, Роменський р-н, Сумська обл.",
    "lat": 50.91135939999999,
    "lng": 33.8995616,
    "meta": {
      "google_maps_place_id": "ChIJRYspvmWQKUERzGbXJQHSEns"
    }
  },
  {
    "id": 29582,
    "name_no_copy": "с. Деменці, Медведівська громада, Черкаський р-н, Черкаська обл.",
    "lat": 49.2131154,
    "lng": 32.2661474,
    "meta": {
      "google_maps_place_id": "ChIJ-RbwFzkl0UARtPem3br91kQ"
    }
  },
  {
    "id": 6069,
    "name_no_copy": "с. Демурино-Варварівка, Саксаганська громада, Кам'янський р-н, Дніпропетровська обл.",
    "lat": 48.2581284,
    "lng": 33.6852322,
    "meta": {
      "google_maps_place_id": "ChIJ-S500-BV2kAR6ARxll37nPE"
    }
  },
  {
    "id": 31224,
    "name_no_copy": "с. День-Добрий, Городнянська громада, Чернігівський р-н, Чернігівська обл.",
    "lat": 51.9773138,
    "lng": 31.2905899,
    "meta": {
      "google_maps_place_id": "ChIJOaxKjKzj1EYRQMO6e0F-WAw"
    }
  },
  {
    "id": 9759,
    "name_no_copy": "с. Деревищина, Баранівська громада, Новоград-Волинський р-н, Житомирська обл.",
    "lat": 50.2858837,
    "lng": 27.4307677,
    "meta": {
      "google_maps_place_id": "ChIJBTt89vmaLkcRNFEhO5Lik0g"
    }
  },
  {
    "id": 30214,
    "name_no_copy": "с. Дерепівка, Менська громада, Корюківський р-н, Чернігівська обл.",
    "lat": 51.3972882,
    "lng": 31.9368056,
    "meta": {
      "google_maps_place_id": "ChIJ1xqq8i_HKkERECs8EBqKPi4"
    }
  },
  {
    "id": 7883,
    "name_no_copy": "с. Дерилове, Лиманська громада, Краматорський р-н, Донецька обл.",
    "lat": 49.0665035,
    "lng": 37.7294996,
    "meta": {
      "google_maps_place_id": "ChIJI5Ms4kN-IEERTohlzfKaNC0"
    }
  },
  {
    "id": 8647,
    "name_no_copy": "с. Дехтярка, Квітнева громада, Житомирський р-н, Житомирська обл.",
    "lat": 49.97758779999999,
    "lng": 29.6965735,
    "meta": {
      "google_maps_place_id": "ChIJEZCZOpOyLEcRsHIZXK0y5O4"
    }
  },
  {
    "id": 24835,
    "name_no_copy": "с. Дзвенигород, Мельнице-Подільська громада, Чортківський р-н, Тернопільська обл.",
    "lat": 48.5433574,
    "lng": 26.2827831,
    "meta": {
      "google_maps_place_id": "ChIJR7TZ3kHpM0cROqO-XxdpuCM"
    }
  },
  {
    "id": 24836,
    "name_no_copy": "с. Дзвинячка, Мельнице-Подільська громада, Чортківський р-н, Тернопільська обл.",
    "lat": 48.5807744,
    "lng": 26.2505572,
    "meta": {
      "google_maps_place_id": "ChIJTwwojlvoM0cRVMMPHrMhAA4"
    }
  },
  {
    "id": 31076,
    "name_no_copy": "с. Димирівка, Сухополов'янська громада, Прилуцький р-н, Чернігівська обл.",
    "lat": 50.6990389,
    "lng": 31.9399287,
    "meta": {
      "google_maps_place_id": "ChIJE8u1LXCe1UARsFxpjrayTNU"
    }
  },
  {
    "id": 14706,
    "name_no_copy": "м. Довжанськ, Довжанська громада, Довжанський р-н, Луганська обл.",
    "lat": 48.0764807,
    "lng": 39.6707123,
    "meta": {
      "google_maps_place_id": "ChIJmRA0_Jnn4UARLgj1RrbDWNA"
    }
  },
  {
    "id": 2183,
    "name_no_copy": "с. Дозорне, Чорнопільська громада, Білогірський р-н, Автономна Республіка Крим обл.",
    "lat": 45.0209053,
    "lng": 34.7011332,
    "meta": {
      "google_maps_place_id": "ChIJhw3dq8wI60ARzgX8JyDmVkk"
    }
  },
  {
    "id": 7675,
    "name_no_copy": "с. Доля, Докучаєвська громада, Кальміуський р-н, Донецька обл.",
    "lat": 47.87413,
    "lng": 37.7193497,
    "meta": {
      "google_maps_place_id": "ChIJFS7yQOK94EARAKGrdZavoJs"
    }
  },
  {
    "id": 7536,
    "name_no_copy": "м. Донецьк, Донецька громада, Донецький р-н, Донецька обл.",
    "lat": 48.015883,
    "lng": 37.80285,
    "meta": {
      "google_maps_place_id": "ChIJLZqRAJWQ4EARhG-Fxf1eMzY"
    }
  },
  {
    "id": 9871,
    "name_no_copy": "с. Дорогань, Довбиська громада, Новоград-Волинський р-н, Житомирська обл.",
    "lat": 50.3263606,
    "lng": 27.9152455,
    "meta": {
      "google_maps_place_id": "ChIJKUdk4-wYLEcRav6gxyHo6Nc"
    }
  },
  {
    "id": 8870,
    "name_no_copy": "с. Дорогунь, Потіївська громада, Житомирський р-н, Житомирська обл.",
    "lat": 50.6126449,
    "lng": 29.0936933,
    "meta": {
      "google_maps_place_id": "ChIJY32DW_-bK0cRokLDDMYvxvQ"
    }
  },
  {
    "id": 23714,
    "name_no_copy": "с. Дорошенкове, Дружбівська громада, Шосткинський р-н, Сумська обл.",
    "lat": 52.0659806,
    "lng": 33.8365562,
    "meta": {
      "google_maps_place_id": "ChIJfdwJL5F8LEERJ9-RY2HEX7Y"
    }
  },
  {
    "id": 31308,
    "name_no_copy": "с. Драчівщина, Іванівська громада, Чернігівський р-н, Чернігівська обл.",
    "lat": 51.2898316,
    "lng": 31.3738174,
    "meta": {
      "google_maps_place_id": "ChIJcXgyaOesKkERkO5EEIPVUEY"
    }
  },
  {
    "id": 30686,
    "name_no_copy": "с. Дрібці, Коропська громада, Новгород-Сіверський р-н, Чернігівська обл.",
    "lat": 51.33413849999999,
    "lng": 32.974428,
    "meta": {
      "google_maps_place_id": "ChIJd2oOmzFSKkERLGgre8EgoHo"
    }
  },
  {
    "id": 7041,
    "name_no_copy": "с. Дубо-Осокорівка, Славгородська громада, Синельниківський р-н, Дніпропетровська обл.",
    "lat": 48.22651279999999,
    "lng": 35.3397792,
    "meta": {
      "google_maps_place_id": "ChIJzR6qEnsF3EARgMBti0zdYvg"
    }
  },
  {
    "id": 7140,
    "name_no_copy": "с. Дубово-Василівка, Соледарська громада, Бахмутський р-н, Донецька обл.",
    "lat": 48.6506268,
    "lng": 37.9261032,
    "meta": {
      "google_maps_place_id": "ChIJn0ZuXrHu30ARqk_ihgVJP-0"
    }
  },
  {
    "id": 31451,
    "name_no_copy": "с. Духанки, Любецька громада, Чернігівський р-н, Чернігівська обл.",
    "lat": 51.62353419999999,
    "lng": 30.8621668,
    "meta": {
      "google_maps_place_id": "ChIJw1YBWVps1UYRxMOGZYSXUNI"
    }
  },
  {
    "id": 5969,
    "name_no_copy": "с. Діброва, Криничанська громада, Кам'янський р-н, Дніпропетровська обл.",
    "lat": 48.2805226,
    "lng": 34.4326091,
    "meta": {
      "google_maps_place_id": "ChIJkXgQ6GC-20ARtDtRGO5HUEY"
    }
  },
  {
    "id": 30840,
    "name_no_copy": "с. Жаданівка, Семенівська громада, Новгород-Сіверський р-н, Чернігівська обл.",
    "lat": 51.9866488,
    "lng": 32.5687531,
    "meta": {
      "google_maps_place_id": "ChIJ96y6CCNGK0ERrMgTr_2IvSc"
    }
  },
  {
    "id": 23668,
    "name_no_copy": "с. Жалківщина, Березівська громада, Шосткинський р-н, Сумська обл.",
    "lat": 51.8278853,
    "lng": 33.9704565,
    "meta": {
      "google_maps_place_id": "ChIJ5xiN11-KK0ERHNNJoFp0WEU"
    }
  },
  {
    "id": 22605,
    "name_no_copy": "с. Жари, Новослобідська громада, Конотопський р-н, Сумська обл.",
    "lat": 51.2591613,
    "lng": 33.9726884,
    "meta": {
      "google_maps_place_id": "ChIJs6DYt119KUERkLi5Cl1ByMQ"
    }
  },
  {
    "id": 31564,
    "name_no_copy": "с. Жилин Млинок, Остерська громада, Чернігівський р-н, Чернігівська обл.",
    "lat": 51.037384,
    "lng": 30.9445902,
    "meta": {
      "google_maps_place_id": "ChIJMZWJIA-zKkcRQP0AQ6uFaDM"
    }
  },
  {
    "id": 6380,
    "name_no_copy": "с. Жмерине, Мирівська громада, Нікопольський р-н, Дніпропетровська обл.",
    "lat": 47.7213139,
    "lng": 34.9045691,
    "meta": {
      "google_maps_place_id": "ChIJr-7P0W6M3EAR3OgBjhbRvyM"
    }
  },
  {
    "id": 22774,
    "name_no_copy": "с. Жолоби, Грунська громада, Охтирський р-н, Сумська обл.",
    "lat": 50.22041280000001,
    "lng": 34.6843275,
    "meta": {
      "google_maps_place_id": "ChIJYQYZWhEZKEERBOFeNFR2Ecw"
    }
  },
  {
    "id": 31131,
    "name_no_copy": "с. Жолобок, Талалаївська громада, Прилуцький р-н, Чернігівська обл.",
    "lat": 50.8432873,
    "lng": 33.1031976,
    "meta": {
      "google_maps_place_id": "ChIJRQGp7pIaKkER8Dm93lBggJM"
    }
  },
  {
    "id": 30253,
    "name_no_copy": "с. Журавок, Сновська громада, Корюківський р-н, Чернігівська обл.",
    "lat": 51.8763619,
    "lng": 31.6893214,
    "meta": {
      "google_maps_place_id": "ChIJtaks5bzZ1EYRNPen9Wp1PhE"
    }
  },
  {
    "id": 21118,
    "name_no_copy": "с. Забаряни, Новоселівська громада, Полтавський р-н, Полтавська обл.",
    "lat": 49.69198129999999,
    "lng": 34.6644746,
    "meta": {
      "google_maps_place_id": "ChIJoWYvcYAh2EARoK7EWUpBUqY"
    }
  },
  {
    "id": 21699,
    "name_no_copy": "с. Завалля, Підлозцівська громада, Дубенський р-н, Рівненська обл.",
    "lat": 50.5712585,
    "lng": 25.4552949,
    "meta": {
      "google_maps_place_id": "ChIJl1VEqBmCJUcRMHViaUd8E38"
    }
  },
  {
    "id": 9449,
    "name_no_copy": "с. Заводне, Народицька громада, Коростенський р-н, Житомирська обл.",
    "lat": 51.1104831,
    "lng": 29.4251015,
    "meta": {
      "google_maps_place_id": "ChIJ3_KPJlZOKkcRQr1OP4CsXlY"
    }
  },
  {
    "id": 30254,
    "name_no_copy": "с. Загребельна Слобода, Сновська громада, Корюківський р-н, Чернігівська обл.",
    "lat": 51.9263905,
    "lng": 31.8945258,
    "meta": {
      "google_maps_place_id": "ChIJI1hDWdHR1EYRmnywNrnQc9o"
    }
  },
  {
    "id": 11646,
    "name_no_copy": "с. Загір'я-Кукільницьке, Більшівцівська громада, Івано-Франківський р-н, Івано-Франківська обл.",
    "lat": 49.2140603,
    "lng": 24.8133945,
    "meta": {
      "google_maps_place_id": "ChIJwxOfT4CMMEcRUq1vQ02lSaQ"
    }
  },
  {
    "id": 22802,
    "name_no_copy": "с. Закаблуки, Комишанська громада, Охтирський р-н, Сумська обл.",
    "lat": 50.2643212,
    "lng": 34.5355157,
    "meta": {
      "google_maps_place_id": "ChIJk1_ShMsjKEERZBO6K6w23g4"
    }
  },
  {
    "id": 15921,
    "name_no_copy": "с. Закривець, Бібрська громада, Львівський р-н, Львівська обл.",
    "lat": 49.55703219999999,
    "lng": 24.3969838,
    "meta": {
      "google_maps_place_id": "ChIJXTyvDkaFOkcRVkfmD88ZLSc"
    }
  },
  {
    "id": 30156,
    "name_no_copy": "с. Заляддя, Корюківська громада, Корюківський р-н, Чернігівська обл.",
    "lat": 51.74914820000001,
    "lng": 32.6145007,
    "meta": {
      "google_maps_place_id": "ChIJ3eS4SMYXK0ERegcWocSzP7g"
    }
  },
  {
    "id": 7141,
    "name_no_copy": "с. Залізнянське, Соледарська громада, Бахмутський р-н, Донецька обл.",
    "lat": 48.70169749999999,
    "lng": 37.9396946,
    "meta": {
      "google_maps_place_id": "ChIJVa_IZMbt30AR3CJDL1X_s0I"
    }
  },
  {
    "id": 31229,
    "name_no_copy": "с. Залісся, Городнянська громада, Чернігівський р-н, Чернігівська обл.",
    "lat": 51.85871179999999,
    "lng": 31.2627992,
    "meta": {
      "google_maps_place_id": "ChIJb-NcX88e1UYRQnorydoOEq8"
    }
  },
  {
    "id": 5781,
    "name_no_copy": "с. Заорілля, Царичанська громада, Дніпровський р-н, Дніпропетровська обл.",
    "lat": 49.1064914,
    "lng": 34.612216,
    "meta": {
      "google_maps_place_id": "ChIJJ-H93YK82UAROqatcwO9zG0"
    }
  },
  {
    "id": 7282,
    "name_no_copy": "с. Запорізьке, Мирненська громада, Волноваський р-н, Донецька обл.",
    "lat": 47.3822171,
    "lng": 37.6557002,
    "meta": {
      "google_maps_place_id": "ChIJCTHEUbko50ARlAvqLrTe4w8"
    }
  },
  {
    "id": 31081,
    "name_no_copy": "с. Зарудка, Сухополов'янська громада, Прилуцький р-н, Чернігівська обл.",
    "lat": 50.5866398,
    "lng": 32.0053295,
    "meta": {
      "google_maps_place_id": "ChIJIyqWHoWi1UARIMl260Zy2Hk"
    }
  },
  {
    "id": 12681,
    "name_no_copy": "с. Затиша, Узинська громада, Білоцерківський р-н, Київська обл.",
    "lat": 49.9310673,
    "lng": 30.4423706,
    "meta": {
      "google_maps_place_id": "ChIJWY9KMoVh00ARTGfJeg83kkw"
    }
  },
  {
    "id": 31082,
    "name_no_copy": "с. Заудаївське, Сухополов'янська громада, Прилуцький р-н, Чернігівська обл.",
    "lat": 50.6557435,
    "lng": 32.47602620000001,
    "meta": {
      "google_maps_place_id": "ChIJgwhqukuN1UARhBRNMy30mPg"
    }
  },
  {
    "id": 23215,
    "name_no_copy": "с. Зацарне, Бездрицька громада, Сумський р-н, Сумська обл.",
    "lat": 50.904156,
    "lng": 35.0099333,
    "meta": {
      "google_maps_place_id": "ChIJTy59BJz8KEERfMQiw_a84Og"
    }
  },
  {
    "id": 6992,
    "name_no_copy": "с. Заяче, Раївська громада, Синельниківський р-н, Дніпропетровська обл.",
    "lat": 48.1566731,
    "lng": 35.59918040000001,
    "meta": {
      "google_maps_place_id": "ChIJ22Mkg2UY3EAR4Hj8NYAXBT0"
    }
  },
  {
    "id": 4947,
    "name_no_copy": "с. Заіванове, Забродівська громада, Ковельський р-н, Волинська обл.",
    "lat": 51.6196759,
    "lng": 24.5914257,
    "meta": {
      "google_maps_place_id": "ChIJJ-PSaV6lJkcRAn5Uc4tOznE"
    }
  },
  {
    "id": 21689,
    "name_no_copy": "с. Зборів, Острожецька громада, Дубенський р-н, Рівненська обл.",
    "lat": 50.6329596,
    "lng": 25.5910103,
    "meta": {
      "google_maps_place_id": "ChIJX9njrOiGJUcRDA_Alizby5M"
    }
  },
  {
    "id": 24839,
    "name_no_copy": "с. Збручанське, Мельнице-Подільська громада, Чортківський р-н, Тернопільська обл.",
    "lat": 48.6640656,
    "lng": 26.2725574,
    "meta": {
      "google_maps_place_id": "ChIJRf-9mNDcM0cRypr5w5TnHG8"
    }
  },
  {
    "id": 27871,
    "name_no_copy": "с. Збручівка, Волочиська громада, Хмельницький р-н, Хмельницька обл.",
    "lat": 49.6502217,
    "lng": 26.2702809,
    "meta": {
      "google_maps_place_id": "ChIJ4zzV96jYMUcRghEYGWEaKUU"
    }
  },
  {
    "id": 10790,
    "name_no_copy": "с. Зелена Балка, Великобілозерська громада, Василівський р-н, Запорізька обл.",
    "lat": 47.2410541,
    "lng": 34.5264798,
    "meta": {
      "google_maps_place_id": "ChIJzSQkE0wzw0ARJEzPmqvYsb8"
    }
  },
  {
    "id": 19087,
    "name_no_copy": "с. Зелений Гай, Балтська громада, Подільський р-н, Одеська обл.",
    "lat": 47.91835870000001,
    "lng": 29.3831257,
    "meta": {
      "google_maps_place_id": "ChIJnZzhHq47zEARGgVj453QSsQ"
    }
  },
  {
    "id": 30845,
    "name_no_copy": "с. Зоря, Семенівська громада, Новгород-Сіверський р-н, Чернігівська обл.",
    "lat": 52.27397,
    "lng": 33.1030809,
    "meta": {
      "google_maps_place_id": "ChIJdXddk3-kLEERGtJ67ctxkog"
    }
  },
  {
    "id": 11681,
    "name_no_copy": "с. Зруб, Букачівська громада, Івано-Франківський р-н, Івано-Франківська обл.",
    "lat": 49.2534462,
    "lng": 24.3987313,
    "meta": {
      "google_maps_place_id": "ChIJzTgM5ZKCMEcRNAM7Zf_H6AQ"
    }
  },
  {
    "id": 9762,
    "name_no_copy": "с. Зрубок, Баранівська громада, Новоград-Волинський р-н, Житомирська обл.",
    "lat": 50.3631738,
    "lng": 27.5183622,
    "meta": {
      "google_maps_place_id": "ChIJSX9tpVOYLkcR1OykIfKQr7w"
    }
  },
  {
    "id": 9873,
    "name_no_copy": "с. Зятинець, Довбиська громада, Новоград-Волинський р-н, Житомирська обл.",
    "lat": 50.338563,
    "lng": 27.9167005,
    "meta": {
      "google_maps_place_id": "ChIJhecFk-AYLEcR_BHQs0pP6FU"
    }
  },
  {
    "id": 30949,
    "name_no_copy": "с. Зінченкове, Ічнянська громада, Прилуцький р-н, Чернігівська обл.",
    "lat": 50.8123048,
    "lng": 32.5974363,
    "meta": {
      "google_maps_place_id": "ChIJUWzoV6F1KkERdHrV91jswvI"
    }
  },
  {
    "id": 15072,
    "name_no_copy": "с. Калинова Балка, Лозно-Олександрівська громада, Сватівський р-н, Луганська обл.",
    "lat": 49.7483683,
    "lng": 38.5699882,
    "meta": {
      "google_maps_place_id": "ChIJjaW_inQMIUERhI6JWIwMomI"
    }
  },
  {
    "id": 30848,
    "name_no_copy": "с. Калинівське, Семенівська громада, Новгород-Сіверський р-н, Чернігівська обл.",
    "lat": 52.26868529999999,
    "lng": 32.4192517,
    "meta": {
      "google_maps_place_id": "ChIJ04J8VOGr1EYRGOOjdDbTfGg"
    }
  },
  {
    "id": 5974,
    "name_no_copy": "с. Кам'янчани, Криничанська громада, Кам'янський р-н, Дніпропетровська обл.",
    "lat": 48.36903820000001,
    "lng": 34.2882181,
    "meta": {
      "google_maps_place_id": "ChIJpwl_TI6320ARnBOQAkbOKOw"
    }
  },
  {
    "id": 5697,
    "name_no_copy": "с. Карайкове, Святовасилівська громада, Дніпровський р-н, Дніпропетровська обл.",
    "lat": 48.1482821,
    "lng": 34.4157387,
    "meta": {
      "google_maps_place_id": "ChIJQScO77aZ20ARLljV-CNwqXw"
    }
  },
  {
    "id": 30849,
    "name_no_copy": "с. Карасі, Семенівська громада, Новгород-Сіверський р-н, Чернігівська обл.",
    "lat": 52.1862727,
    "lng": 32.9812088,
    "meta": {
      "google_maps_place_id": "ChIJzTlxJ0ynLEER8BYuAUC72eM"
    }
  },
  {
    "id": 19358,
    "name_no_copy": "с. Кардамичеве, Великомихайлівська громада, Роздільнянський р-н, Одеська обл.",
    "lat": 46.96141799999999,
    "lng": 29.9141481,
    "meta": {
      "google_maps_place_id": "ChIJrzCr0yDeyEARaPitqVgByKE"
    }
  },
  {
    "id": 21119,
    "name_no_copy": "с. Карнаухи, Новоселівська громада, Полтавський р-н, Полтавська обл.",
    "lat": 49.6985792,
    "lng": 34.8570753,
    "meta": {
      "google_maps_place_id": "ChIJbbKwgIwX2EARgtu7vwJTuag"
    }
  },
  {
    "id": 23758,
    "name_no_copy": "с. Карпеченкове, Зноб-Новгородська громада, Шосткинський р-н, Сумська обл.",
    "lat": 52.2993014,
    "lng": 33.5852741,
    "meta": {
      "google_maps_place_id": "ChIJfaA02U2SLEER8kkXX1odTO4"
    }
  },
  {
    "id": 31233,
    "name_no_copy": "с. Картовецьке, Городнянська громада, Чернігівський р-н, Чернігівська обл.",
    "lat": 51.8719593,
    "lng": 31.4285334,
    "meta": {
      "google_maps_place_id": "ChIJ8UZ1tBQg1UYRcnbNOqYO3dE"
    }
  },
  {
    "id": 4179,
    "name_no_copy": "с. Касянівка, Томашпільська громада, Тульчинський р-н, Вінницька обл.",
    "lat": 48.618963,
    "lng": 28.6600627,
    "meta": {
      "google_maps_place_id": "ChIJ7Qk9pLQ-zUAR3sNyRfyWIFM"
    }
  },
  {
    "id": 18095,
    "name_no_copy": "с. Каталине, Куцурубська громада, Миколаївський р-н, Миколаївська обл.",
    "lat": 46.7658442,
    "lng": 31.8651824,
    "meta": {
      "google_maps_place_id": "ChIJk4yert_UxUARFpujpzuHB4I"
    }
  },
  {
    "id": 6332,
    "name_no_copy": "с. Катерино-Наталівка, Софіївська громада, Криворізький р-н, Дніпропетровська обл.",
    "lat": 48.0238538,
    "lng": 34.1702224,
    "meta": {
      "google_maps_place_id": "ChIJMZyx-c9020AR5MEgwydRKog"
    }
  },
  {
    "id": 10791,
    "name_no_copy": "с. Качкарівка, Великобілозерська громада, Василівський р-н, Запорізька обл.",
    "lat": 47.2736653,
    "lng": 34.5825912,
    "meta": {
      "google_maps_place_id": "ChIJ_-qJ6V3M3EARlk8W7pg8g4Q"
    }
  },
  {
    "id": 30953,
    "name_no_copy": "с. Киколи, Ічнянська громада, Прилуцький р-н, Чернігівська обл.",
    "lat": 50.8208598,
    "lng": 32.2595045,
    "meta": {
      "google_maps_place_id": "ChIJj571hOyG1UARLKYxx8Or8h4"
    }
  },
  {
    "id": 9804,
    "name_no_copy": "с. Киселівка, Барашівська громада, Новоград-Волинський р-н, Житомирська обл.",
    "lat": 50.6315624,
    "lng": 28.0834627,
    "meta": {
      "google_maps_place_id": "ChIJ_9C4S5P_K0cREtjdF8ujsmc"
    }
  },
  {
    "id": 17990,
    "name_no_copy": "с. Київ, Прибузька громада, Вознесенський р-н, Миколаївська обл.",
    "lat": 50.4501,
    "lng": 30.5234,
    "meta": {
      "google_maps_place_id": "ChIJBUVa4U7P1EAR_kYBF9IxSXY"
    }
  },
  {
    "id": 31647,
    "name_no_copy": "м. Київ",
    "lat": 50.4501,
    "lng": 30.5234,
    "meta": {
      "google_maps_place_id": "ChIJBUVa4U7P1EAR_kYBF9IxSXY"
    }
  },
  {
    "id": 6995,
    "name_no_copy": "с. Київське, Раївська громада, Синельниківський р-н, Дніпропетровська обл.",
    "lat": 48.1340184,
    "lng": 35.5870532,
    "meta": {
      "google_maps_place_id": "ChIJy9CKmgMY3EAREgeqdtAno-M"
    }
  },
  {
    "id": 4671,
    "name_no_copy": "с. Кладнів, Устилузька громада, Володимир-Волинський р-н, Волинська обл.",
    "lat": 51.0328321,
    "lng": 23.953304,
    "meta": {
      "google_maps_place_id": "ChIJI0eEtlZ6JEcRvmzoAf1rkGM"
    }
  },
  {
    "id": 5628,
    "name_no_copy": "с. Кладнів, Новоолександрівська громада, Дніпровський р-н, Дніпропетровська обл.",
    "lat": 51.0328321,
    "lng": 23.953304,
    "meta": {
      "google_maps_place_id": "ChIJI0eEtlZ6JEcRvmzoAf1rkGM"
    }
  },
  {
    "id": 8874,
    "name": "с. Клен, Потіївська громада, Житомирський р-н, Житомирська обл.",
    "lat": 50.675163,
    "lng": 28.894855,
    "meta": {
      "google_maps_place_id": "ChIJQZiCecqWK0cRDkG0HqWTCbw"
    }
  },
  {
    "id": 30599,
    "name_no_copy": "с. Кленове, Макіївська громада, Ніжинський р-н, Чернігівська обл.",
    "lat": 50.7225283,
    "lng": 31.8629338,
    "meta": {
      "google_maps_place_id": "ChIJExpcI9t11UARhFdHyoM4A-Q"
    }
  },
  {
    "id": 23057,
    "name_no_copy": "с. Клин, Недригайлівська громада, Роменський р-н, Сумська обл.",
    "lat": 50.8886336,
    "lng": 33.9440251,
    "meta": {
      "google_maps_place_id": "ChIJ_9xe4seQKUERShwM1m14KvQ"
    }
  },
  {
    "id": 15150,
    "name_no_copy": "с. Клинуватка, Троїцька громада, Сватівський р-н, Луганська обл.",
    "lat": 49.8054634,
    "lng": 38.2552346,
    "meta": {
      "google_maps_place_id": "ChIJ4WcPa-YWIUER-h70v_TBCdY"
    }
  },
  {
    "id": 4999,
    "name_no_copy": "с. Кличковичі, Луківська громада, Ковельський р-н, Волинська обл.",
    "lat": 51.1546646,
    "lng": 24.4869195,
    "meta": {
      "google_maps_place_id": "ChIJO23O2ZU_JEcRPi4h0z4nQ5Q"
    }
  },
  {
    "id": 31452,
    "name_no_copy": "с. Клонів, Любецька громада, Чернігівський р-н, Чернігівська обл.",
    "lat": 51.6455098,
    "lng": 30.7563679,
    "meta": {
      "google_maps_place_id": "ChIJE8pHUWxy1UYRXi8ISSwC9q8"
    }
  },
  {
    "id": 27539,
    "name_no_copy": "с. Княгинин, Кам'янець-Подільська громада, Кам'янець-Подільський р-н, Хмельницька обл.",
    "lat": 48.6107321,
    "lng": 26.4675882,
    "meta": {
      "google_maps_place_id": "ChIJY_X-hPfAM0cRUuuqwe5eEs4"
    }
  },
  {
    "id": 6174,
    "name_no_copy": "с. Ковалеве, Девладівська громада, Криворізький р-н, Дніпропетровська обл.",
    "lat": 48.1508289,
    "lng": 33.7933597,
    "meta": {
      "google_maps_place_id": "ChIJd0zo2hoB20ARfrLSaF8WVbc"
    }
  },
  {
    "id": 27937,
    "name_no_copy": "с. Ковалівка, Городоцька громада, Хмельницький р-н, Хмельницька обл.",
    "lat": 49.29913579999999,
    "lng": 26.6511534,
    "meta": {
      "google_maps_place_id": "ChIJRR-6IP4dMkcR9KBHK0Eyp8A"
    }
  },
  {
    "id": 9692,
    "name_no_copy": "с. Ковалівщина, Ушомирська громада, Коростенський р-н, Житомирська обл.",
    "lat": 50.8018712,
    "lng": 28.6764805,
    "meta": {
      "google_maps_place_id": "ChIJRY5lM_LpK0cR4oTbN4Z4krQ"
    }
  },
  {
    "id": 8680,
    "name_no_copy": "с. Козак, Коростишівська громада, Житомирський р-н, Житомирська обл.",
    "lat": 50.3416858,
    "lng": 28.9695394,
    "meta": {
      "google_maps_place_id": "ChIJS560kmOALEcRzIxTmjPudaA"
    }
  },
  {
    "id": 3170,
    "name_no_copy": "с. Козаківка, Немирівська громада, Вінницький р-н, Вінницька обл.",
    "lat": 49.0301568,
    "lng": 28.7518132,
    "meta": {
      "google_maps_place_id": "ChIJnyx_NGKq0kAR9v-T22cB6BY"
    }
  },
  {
    "id": 6825,
    "name_no_copy": "с. Козачий Гай, Зайцівська громада, Синельниківський р-н, Дніпропетровська обл.",
    "lat": 48.4106129,
    "lng": 35.633585,
    "meta": {
      "google_maps_place_id": "ChIJFfwCVWqv3kARWHYWGNMvpsU"
    }
  },
  {
    "id": 30851,
    "name_no_copy": "с. Козилівщина, Семенівська громада, Новгород-Сіверський р-н, Чернігівська обл.",
    "lat": 51.9487057,
    "lng": 32.7051388,
    "meta": {
      "google_maps_place_id": "ChIJC8kVnkBBK0ERqGQZ-F4Vapk"
    }
  },
  {
    "id": 17620,
    "name_no_copy": "с. Козлівка, Казанківська громада, Баштанський р-н, Миколаївська обл.",
    "lat": 47.8338062,
    "lng": 33.0038401,
    "meta": {
      "google_maps_place_id": "ChIJgcRU0yPS2kARfpposobzqQo"
    }
  },
  {
    "id": 9653,
    "name_no_copy": "с. Козулі, Словечанська громада, Коростенський р-н, Житомирська обл.",
    "lat": 51.4648252,
    "lng": 28.3749519,
    "meta": {
      "google_maps_place_id": "ChIJd5xOwOuXKUcRnh4PmBeqpLY"
    }
  },
  {
    "id": 18306,
    "name_no_copy": "с. Коломіївка, Кам'яномостівська громада, Первомайський р-н, Миколаївська обл.",
    "lat": 47.9437509,
    "lng": 30.7029561,
    "meta": {
      "google_maps_place_id": "ChIJAd8ynOZPzkARIu7aoFdp5MY"
    }
  },
  {
    "id": 16452,
    "name_no_copy": "с. Колонія, Бісковицька громада, Самбірський р-н, Львівська обл.",
    "lat": 49.64636360000001,
    "lng": 23.1816753,
    "meta": {
      "google_maps_place_id": "ChIJ9wt3w5agO0cRqkY_azOUcGA"
    }
  },
  {
    "id": 10777,
    "name_no_copy": "с. Коновалова, Василівська громада, Василівський р-н, Запорізька обл.",
    "lat": 47.4933536,
    "lng": 35.5390884,
    "meta": {
      "google_maps_place_id": "ChIJqS7uKD8E3UARKPl_5AJ925A"
    }
  },
  {
    "id": 30436,
    "name_no_copy": "с. Коношівка, Бобровицька громада, Ніжинський р-н, Чернігівська обл.",
    "lat": 50.8056954,
    "lng": 31.2825205,
    "meta": {
      "google_maps_place_id": "ChIJ1SIqn3k_1UARPFBJox1fu3c"
    }
  },
  {
    "id": 22877,
    "name_no_copy": "с. Корабельське, Чернеччинська громада, Охтирський р-н, Сумська обл.",
    "lat": 50.3194944,
    "lng": 35.0096152,
    "meta": {
      "google_maps_place_id": "ChIJieHyc4oSKEERHCAxJCkJR_c"
    }
  },
  {
    "id": 9527,
    "name_no_copy": "с. Кораки, Овруцька громада, Коростенський р-н, Житомирська обл.",
    "lat": 51.4882449,
    "lng": 28.6106059,
    "meta": {
      "google_maps_place_id": "ChIJSRRUGjKSKUcRRsRwEtTfryo"
    }
  },
  {
    "id": 22455,
    "name_no_copy": "с. Коренівка, Буринська громада, Конотопський р-н, Сумська обл.",
    "lat": 51.1090218,
    "lng": 33.6281108,
    "meta": {
      "google_maps_place_id": "ChIJtXeO-l8pKkEROk9sVBIIrek"
    }
  },
  {
    "id": 3571,
    "name_no_copy": "с-ще Коржів, Райгородська громада, Гайсинський р-н, Вінницька обл.",
    "lat": 48.8583867,
    "lng": 29.0087703,
    "meta": {
      "google_maps_place_id": "ChIJo4yF6nhezUARvCrXRLKY5SQ"
    }
  },
  {
    "id": 30955,
    "name_no_copy": "с. Коршаки, Ічнянська громада, Прилуцький р-н, Чернігівська обл.",
    "lat": 50.8089867,
    "lng": 32.2134182,
    "meta": {
      "google_maps_place_id": "ChIJSZ-ILxaE1UARXqDfM5fcsGc"
    }
  },
  {
    "id": 23716,
    "name_no_copy": "с. Косинське, Дружбівська громада, Шосткинський р-н, Сумська обл.",
    "lat": 52.04362889999999,
    "lng": 33.794761,
    "meta": {
      "google_maps_place_id": "ChIJF214vGd8LEERsIVWC9wKtlQ"
    }
  },
  {
    "id": 9918,
    "name_no_copy": "с. Косяк, Ємільчинська громада, Новоград-Волинський р-н, Житомирська обл.",
    "lat": 50.946374,
    "lng": 28.0223068,
    "meta": {
      "google_maps_place_id": "ChIJced-rv1CKUcRkoNxZOSbwsU"
    }
  },
  {
    "id": 21616,
    "name_no_copy": "с. Коти, Крупецька громада, Дубенський р-н, Рівненська обл.",
    "lat": 50.1999451,
    "lng": 25.4386546,
    "meta": {
      "google_maps_place_id": "ChIJwZ1KbTTzL0cRFiF0pz9WqUo"
    }
  },
  {
    "id": 15153,
    "name_no_copy": "с. Кошелівка, Троїцька громада, Сватівський р-н, Луганська обл.",
    "lat": 49.7369954,
    "lng": 38.0226865,
    "meta": {
      "google_maps_place_id": "ChIJ6-cqaFUfIUERnmDuzZr6DpA"
    }
  },
  {
    "id": 30665,
    "name_no_copy": "с. Кравчиха, Талалаївська громада, Ніжинський р-н, Чернігівська обл.",
    "lat": 50.8908338,
    "lng": 32.041538,
    "meta": {
      "google_maps_place_id": "ChIJexF4dOZ-1UARUqMwJAvXVMc"
    }
  },
  {
    "id": 11408,
    "name_no_copy": "с. Красногірське, Гуляйпільська громада, Пологівський р-н, Запорізька обл.",
    "lat": 47.817286,
    "lng": 36.3525575,
    "meta": {
      "google_maps_place_id": "ChIJ4QIiAxLD3UARmHo6IoIaauY"
    }
  },
  {
    "id": 5011,
    "name_no_copy": "с. Краснодуб'я, Люблинецька громада, Ковельський р-н, Волинська обл.",
    "lat": 51.2508695,
    "lng": 24.5045761,
    "meta": {
      "google_maps_place_id": "ChIJFepbJDcWJEcRTIc6j5qpFhQ"
    }
  },
  {
    "id": 7142,
    "name_no_copy": "с. Краснополівка, Соледарська громада, Бахмутський р-н, Донецька обл.",
    "lat": 48.7310609,
    "lng": 38.0473258,
    "meta": {
      "google_maps_place_id": "ChIJD9sEZJvx30ARkD3jD5nhPNs"
    }
  },
  {
    "id": 8781,
    "name_no_copy": "с. Краснорічка, Новоборівська громада, Житомирський р-н, Житомирська обл.",
    "lat": 50.6044515,
    "lng": 28.5906362,
    "meta": {
      "google_maps_place_id": "ChIJdxz-iDzzK0cRJnvll4exZ70"
    }
  },
  {
    "id": 23759,
    "name_no_copy": "с. Красноярське, Зноб-Новгородська громада, Шосткинський р-н, Сумська обл.",
    "lat": 52.2436992,
    "lng": 33.4150867,
    "meta": {
      "google_maps_place_id": "ChIJFY6jpbSQLEERHNxpw3N5ijM"
    }
  },
  {
    "id": 6072,
    "name_no_copy": "с. Красноіванівка, Саксаганська громада, Кам'янський р-н, Дніпропетровська обл.",
    "lat": 48.3558789,
    "lng": 33.7310076,
    "meta": {
      "google_maps_place_id": "ChIJJ1E8JP5Q2kARgJBwSnoF8lM"
    }
  },
  {
    "id": 30853,
    "name_no_copy": "с. Красні Лози, Семенівська громада, Новгород-Сіверський р-н, Чернігівська обл.",
    "lat": 52.2063553,
    "lng": 32.3562747,
    "meta": {
      "google_maps_place_id": "ChIJDREOUMSt1EYRTGWjT1RB4pQ"
    }
  },
  {
    "id": 31568,
    "name_no_copy": "с. Крені, Остерська громада, Чернігівський р-н, Чернігівська обл.",
    "lat": 50.95115209999999,
    "lng": 30.9609326,
    "meta": {
      "google_maps_place_id": "ChIJk8CloeNK1UARTlC6ppObDXc"
    }
  },
  {
    "id": 30261,
    "name_no_copy": "с. Крестопівщина, Сновська громада, Корюківський р-н, Чернігівська обл.",
    "lat": 51.9182082,
    "lng": 31.7164239,
    "meta": {
      "google_maps_place_id": "ChIJ11wY1zDa1EYRdgQUCP0Ee9c"
    }
  },
  {
    "id": 30854,
    "name_no_copy": "с. Кривуша, Семенівська громада, Новгород-Сіверський р-н, Чернігівська обл.",
    "lat": 52.1832112,
    "lng": 32.681389,
    "meta": {
      "google_maps_place_id": "ChIJZwMRjrhWK0ERSj4aKx31EMM"
    }
  },
  {
    "id": 12219,
    "name_no_copy": "с. Кринички, Матеївецька громада, Коломийський р-н, Івано-Франківська обл.",
    "lat": 48.5203216,
    "lng": 25.2365813,
    "meta": {
      "google_maps_place_id": "ChIJ6VzYKdM0MUcRhPHq4d0G4mA"
    }
  },
  {
    "id": 30855,
    "name_no_copy": "с. Кринички, Семенівська громада, Новгород-Сіверський р-н, Чернігівська обл.",
    "lat": 52.2519236,
    "lng": 32.4761334,
    "meta": {
      "google_maps_place_id": "ChIJfwrNsHWr1EYRkhMxoUWTaIA"
    }
  },
  {
    "id": 28207,
    "name_no_copy": "с. Кринцілів, Сатанівська громада, Хмельницький р-н, Хмельницька обл.",
    "lat": 49.2275165,
    "lng": 26.2035329,
    "meta": {
      "google_maps_place_id": "ChIJLfVIaWORMUcRNFSghtTonGI"
    }
  },
  {
    "id": 30856,
    "name_no_copy": "с. Криульки, Семенівська громада, Новгород-Сіверський р-н, Чернігівська обл.",
    "lat": 52.1882928,
    "lng": 32.9273184,
    "meta": {
      "google_maps_place_id": "ChIJaw7XbZ1YK0ERkOO1qXP44cU"
    }
  },
  {
    "id": 31087,
    "name_no_copy": "с. Кроти, Сухополов'янська громада, Прилуцький р-н, Чернігівська обл.",
    "lat": 50.5632214,
    "lng": 32.2336952,
    "meta": {
      "google_maps_place_id": "ChIJC9eWScmV1UARsBe6bPhiQn0"
    }
  },
  {
    "id": 17621,
    "name_no_copy": "с. Кротівка, Казанківська громада, Баштанський р-н, Миколаївська обл.",
    "lat": 47.8809542,
    "lng": 32.973487,
    "meta": {
      "google_maps_place_id": "ChIJu3w0YkbO2kARAMo9WrT7tWc"
    }
  },
  {
    "id": 31501,
    "name_no_copy": "с. Кругле, Михайло-Коцюбинська громада, Чернігівський р-н, Чернігівська обл.",
    "lat": 51.5245342,
    "lng": 31.0839274,
    "meta": {
      "google_maps_place_id": "ChIJSbVbQmBB1UYRqPkZPmJfmjQ"
    }
  },
  {
    "id": 14646,
    "name_no_copy": "с-ще Круглик, Алчевська громада, Алчевський р-н, Луганська обл.",
    "lat": 48.34238,
    "lng": 38.5054602,
    "meta": {
      "google_maps_place_id": "ChIJF2SGXcEU4EARoEFaoqV7ncA"
    }
  },
  {
    "id": 9733,
    "name_no_copy": "с. Крушники, Чоповицька громада, Коростенський р-н, Житомирська обл.",
    "lat": 50.8063316,
    "lng": 29.0745002,
    "meta": {
      "google_maps_place_id": "ChIJo8OXQ4C7K0cR1v7Lnzg7ndc"
    }
  },
  {
    "id": 15534,
    "name_no_copy": "с. Кряківка, Щастинська громада, Щастинський р-н, Луганська обл.",
    "lat": 48.76616910000001,
    "lng": 38.91286729999999,
    "meta": {
      "google_maps_place_id": "ChIJv7VL6FDwH0ERBvjXB56uiGE"
    }
  },
  {
    "id": 22456,
    "name_no_copy": "с. Кубракове, Буринська громада, Конотопський р-н, Сумська обл.",
    "lat": 51.0459666,
    "lng": 33.8663101,
    "meta": {
      "google_maps_place_id": "ChIJic806PGDKUERHGHt8QkQeEw"
    }
  },
  {
    "id": 30160,
    "name_no_copy": "с. Кугуки, Корюківська громада, Корюківський р-н, Чернігівська обл.",
    "lat": 51.7390039,
    "lng": 32.2608819,
    "meta": {
      "google_maps_place_id": "ChIJRWYphOYlK0ERFP3Bp-wSPaw"
    }
  },
  {
    "id": 22805,
    "name_no_copy": "с. Кударі, Комишанська громада, Охтирський р-н, Сумська обл.",
    "lat": 50.2980266,
    "lng": 34.548318,
    "meta": {
      "google_maps_place_id": "ChIJQ4HO63IjKEERlOhn--FfBuI"
    }
  },
  {
    "id": 23762,
    "name_no_copy": "с. Кудоярове, Зноб-Новгородська громада, Шосткинський р-н, Сумська обл.",
    "lat": 52.2911198,
    "lng": 33.6013968,
    "meta": {
      "google_maps_place_id": "ChIJmRWBxkOSLEERYk16oHPmgiw"
    }
  },
  {
    "id": 24841,
    "name_no_copy": "с. Кудринці, Мельнице-Подільська громада, Чортківський р-н, Тернопільська обл.",
    "lat": 48.61618929999999,
    "lng": 26.2814445,
    "meta": {
      "google_maps_place_id": "ChIJaWazi53CM0cRrVbYpjC7loQ"
    }
  },
  {
    "id": 6275,
    "name_no_copy": "с. Курганка, Новолатівська громада, Криворізький р-н, Дніпропетровська обл.",
    "lat": 47.8164069,
    "lng": 33.0874988,
    "meta": {
      "google_maps_place_id": "ChIJLyzSW1TR2kAR0tq1OT6MYbk"
    }
  },
  {
    "id": 30262,
    "name_no_copy": "с. Куропіївка, Сновська громада, Корюківський р-н, Чернігівська обл.",
    "lat": 51.6976759,
    "lng": 31.9821131,
    "meta": {
      "google_maps_place_id": "ChIJ1WaVgsLVKkERrGuq_SaDBhs"
    }
  },
  {
    "id": 31053,
    "name_no_copy": "с. Кути, Срібнянська громада, Прилуцький р-н, Чернігівська обл.",
    "lat": 50.6441236,
    "lng": 32.8912407,
    "meta": {
      "google_maps_place_id": "ChIJr0h2kgH51UARlvoB3zazFqo"
    }
  },
  {
    "id": 30692,
    "name_no_copy": "с. Кучі, Коропська громада, Новгород-Сіверський р-н, Чернігівська обл.",
    "lat": 51.4642355,
    "lng": 32.9983251,
    "meta": {
      "google_maps_place_id": "ChIJMVcBBqKrK0ER3Zbb2QT9sn4"
    }
  },
  {
    "id": 23673,
    "name_no_copy": "с. Кушкине, Березівська громада, Шосткинський р-н, Сумська обл.",
    "lat": 51.7119621,
    "lng": 33.5397235,
    "meta": {
      "google_maps_place_id": "ChIJT-T5gAOaK0ERUlC3fQ754Zw"
    }
  },
  {
    "id": 31088,
    "name_no_copy": "с. Ладівщина, Сухополов'янська громада, Прилуцький р-н, Чернігівська обл.",
    "lat": 50.6099307,
    "lng": 32.1432292,
    "meta": {
      "google_maps_place_id": "ChIJ4WHF6wyX1UARYMSNYSsCqjU"
    }
  },
  {
    "id": 30222,
    "name_no_copy": "с. Лазарівка, Менська громада, Корюківський р-н, Чернігівська обл.",
    "lat": 51.4995071,
    "lng": 31.8431224,
    "meta": {
      "google_maps_place_id": "ChIJmfcFxibPKkERbiBwIGCG16U"
    }
  },
  {
    "id": 9923,
    "name_no_copy": "с. Лебідь, Ємільчинська громада, Новоград-Волинський р-н, Житомирська обл.",
    "lat": 50.9081783,
    "lng": 28.0414914,
    "meta": {
      "google_maps_place_id": "ChIJje-yorJcKUcR3LOP5jq77oM"
    }
  },
  {
    "id": 9531,
    "name_no_copy": "с. Левковицький Млинок, Овруцька громада, Коростенський р-н, Житомирська обл.",
    "lat": 51.41427590000001,
    "lng": 28.4610588,
    "meta": {
      "google_maps_place_id": "ChIJ3zVxZgWaKUcRMuVZV-0ppZo"
    }
  },
  {
    "id": 31137,
    "name_no_copy": "с. Левівщина, Талалаївська громада, Прилуцький р-н, Чернігівська обл.",
    "lat": 50.9870418,
    "lng": 33.0212986,
    "meta": {
      "google_maps_place_id": "ChIJQWFgL7AVKkER5Hj_X4z_vyo"
    }
  },
  {
    "id": 11130,
    "name_no_copy": "с. Лемешинське, Широківська громада, Запорізький р-н, Запорізька обл.",
    "lat": 48.0131234,
    "lng": 35.0307422,
    "meta": {
      "google_maps_place_id": "ChIJTYTLWalx3EARZNT1qjh9PSY"
    }
  },
  {
    "id": 31293,
    "name_no_copy": "с. Лизунова Рудня, Добрянська громада, Чернігівський р-н, Чернігівська обл.",
    "lat": 51.9311418,
    "lng": 30.9380995,
    "meta": {
      "google_maps_place_id": "ChIJWeFFILcG1UYRhkQ65ofEPXA"
    }
  },
  {
    "id": 5915,
    "name_no_copy": "с. Ликошине, Вишнівська громада, Кам'янський р-н, Дніпропетровська обл.",
    "lat": 48.5310768,
    "lng": 33.8538592,
    "meta": {
      "google_maps_place_id": "ChIJ5a3o2e1H2kARbIrO9wWgTkQ"
    }
  },
  {
    "id": 18017,
    "name_no_copy": "с. Лиманське, Березанська громада, Миколаївський р-н, Миколаївська обл.",
    "lat": 46.8000443,
    "lng": 31.4335914,
    "meta": {
      "google_maps_place_id": "ChIJSxZha1d0xkAR0BqD4FJ9-7U"
    }
  },
  {
    "id": 7403,
    "name_no_copy": "смт Лиманчук, Сніжнянська громада, Горлівський р-н, Донецька обл.",
    "lat": 48.0152695,
    "lng": 38.8236621,
    "meta": {
      "google_maps_place_id": "ChIJ7_1HV6ay4UARDPdikAy868E"
    }
  },
  {
    "id": 30546,
    "name_no_copy": "с. Линівка, Комарівська громада, Ніжинський р-н, Чернігівська обл.",
    "lat": 51.3381418,
    "lng": 32.2853026,
    "meta": {
      "google_maps_place_id": "ChIJ1QGWki7sKkERvMSP_SsUg94"
    }
  },
  {
    "id": 7143,
    "name_no_copy": "с. Липівка, Соледарська громада, Бахмутський р-н, Донецька обл.",
    "lat": 48.7815248,
    "lng": 37.8675594,
    "meta": {
      "google_maps_place_id": "ChIJP6gZ72yN30ARisJS6K7mDFs"
    }
  },
  {
    "id": 30264,
    "name_no_copy": "с. Липівка, Сновська громада, Корюківський р-н, Чернігівська обл.",
    "lat": 52.1080682,
    "lng": 31.8592355,
    "meta": {
      "google_maps_place_id": "ChIJV-8pj8zA1EYRQArWConNBvg"
    }
  },
  {
    "id": 9459,
    "name_no_copy": "с. Листвинівка, Народицька громада, Коростенський р-н, Житомирська обл.",
    "lat": 51.0852575,
    "lng": 29.2882289,
    "meta": {
      "google_maps_place_id": "ChIJ2YQXk5RLKkcR2sviIce9TsA"
    }
  },
  {
    "id": 21701,
    "name_no_copy": "с. Лихачівка, Підлозцівська громада, Дубенський р-н, Рівненська обл.",
    "lat": 50.5534808,
    "lng": 25.3772841,
    "meta": {
      "google_maps_place_id": "ChIJGYR1tmF4JUcRSL3E2I3mfQI"
    }
  },
  {
    "id": 15535,
    "name_no_copy": "с. Лобачеве, Щастинська громада, Щастинський р-н, Луганська обл.",
    "lat": 48.6669166,
    "lng": 39.1267772,
    "meta": {
      "google_maps_place_id": "ChIJaxwoeBboH0ERBDIehiYOmMw"
    }
  },
  {
    "id": 17624,
    "name_no_copy": "с. Лозове, Казанківська громада, Баштанський р-н, Миколаївська обл.",
    "lat": 47.6741405,
    "lng": 32.9319497,
    "meta": {
      "google_maps_place_id": "ChIJwQ_bTFspxUARInILwwZY2Ic"
    }
  },
  {
    "id": 31055,
    "name_no_copy": "с. Лозове, Срібнянська громада, Прилуцький р-н, Чернігівська обл.",
    "lat": 50.6675575,
    "lng": 33.0051218,
    "meta": {
      "google_maps_place_id": "ChIJa0dlF7IAKkERDnrj0ENlric"
    }
  },
  {
    "id": 5916,
    "name_no_copy": "с. Лозуватка, Вишнівська громада, Кам'янський р-н, Дніпропетровська обл.",
    "lat": 48.0643366,
    "lng": 33.2956359,
    "meta": {
      "google_maps_place_id": "ChIJg5Xk5krm2kAR0hD-RKcnyEQ"
    }
  },
  {
    "id": 15536,
    "name_no_copy": "с. Лопаскине, Щастинська громада, Щастинський р-н, Луганська обл.",
    "lat": 48.675148,
    "lng": 39.0274052,
    "meta": {
      "google_maps_place_id": "ChIJ0cDq4iHmH0ERNLL16woNOeA"
    }
  },
  {
    "id": 30860,
    "name_no_copy": "с. Лосевочка, Семенівська громада, Новгород-Сіверський р-н, Чернігівська обл.",
    "lat": 51.9709131,
    "lng": 32.6385465,
    "meta": {
      "google_maps_place_id": "ChIJC_KGfY1GK0ERsKlyb0Qxpg0"
    }
  },
  {
    "id": 6749,
    "name_no_copy": "с. Луб'янці, Васильківська громада, Синельниківський р-н, Дніпропетровська обл.",
    "lat": 48.2038592,
    "lng": 35.7418283,
    "meta": {
      "google_maps_place_id": "ChIJa1gr3rYh3EAR-B8XY1twpvQ"
    }
  },
  {
    "id": 30224,
    "name_no_copy": "с. Луки, Менська громада, Корюківський р-н, Чернігівська обл.",
    "lat": 51.3974595,
    "lng": 32.1875961,
    "meta": {
      "google_maps_place_id": "ChIJy70I25npKkERQo4Zf0fY2Ao"
    }
  },
  {
    "id": 8783,
    "name_no_copy": "с. Луковець, Новоборівська громада, Житомирський р-н, Житомирська обл.",
    "lat": 50.740162,
    "lng": 28.4307113,
    "meta": {
      "google_maps_place_id": "ChIJLd-kv3LlK0cRpA5qtmZVSGM"
    }
  },
  {
    "id": 30164,
    "name_no_copy": "с. Луковець, Корюківська громада, Корюківський р-н, Чернігівська обл.",
    "lat": 51.708243,
    "lng": 32.3011163,
    "meta": {
      "google_maps_place_id": "ChIJY5pE7JomK0ER6qaM6mKWuJE"
    }
  },
  {
    "id": 31507,
    "name_no_copy": "с. Льгівка, Михайло-Коцюбинська громада, Чернігівський р-н, Чернігівська обл.",
    "lat": 51.51895099999999,
    "lng": 31.1128341,
    "meta": {
      "google_maps_place_id": "ChIJGVA5bVRB1UYRRGFy-oykVV8"
    }
  },
  {
    "id": 16427,
    "name_no_copy": "с. Льопи, Щирецька громада, Львівський р-н, Львівська обл.",
    "lat": 49.63425770000001,
    "lng": 23.7713274,
    "meta": {
      "google_maps_place_id": "ChIJP7ZnNfD7OkcR_m7DCYIDK6k"
    }
  },
  {
    "id": 23765,
    "name_no_copy": "с. Любахове, Зноб-Новгородська громада, Шосткинський р-н, Сумська обл.",
    "lat": 52.2857484,
    "lng": 33.5270638,
    "meta": {
      "google_maps_place_id": "ChIJ0fGu8NiTLEERKsqh5pS81AA"
    }
  },
  {
    "id": 6178,
    "name_no_copy": "с. Любе, Девладівська громада, Криворізький р-н, Дніпропетровська обл.",
    "lat": 48.171231,
    "lng": 33.8456166,
    "meta": {
      "google_maps_place_id": "ChIJ2ao6DrwA20ARkqWP-wrz47U"
    }
  },
  {
    "id": 31238,
    "name_no_copy": "с. Лютіж, Городнянська громада, Чернігівський р-н, Чернігівська обл.",
    "lat": 51.9036244,
    "lng": 31.4280964,
    "meta": {
      "google_maps_place_id": "ChIJi5c7GAng1EYR7GmCf2vKTNE"
    }
  },
  {
    "id": 22961,
    "name_no_copy": "с. Лікарівщина, Вільшанська громада, Роменський р-н, Сумська обл.",
    "lat": 50.7961918,
    "lng": 34.0968935,
    "meta": {
      "google_maps_place_id": "ChIJoY-bvLS9KUERdo6uZWXhbFA"
    }
  },
  {
    "id": 30364,
    "name_no_copy": "с. Лісова Поляна, Батуринська громада, Ніжинський р-н, Чернігівська обл.",
    "lat": 51.3798263,
    "lng": 32.9322774,
    "meta": {
      "google_maps_place_id": "ChIJc9Nbwn9UKkEROIAz1CYca68"
    }
  },
  {
    "id": 6999,
    "name_no_copy": "с. Мажари, Раївська громада, Синельниківський р-н, Дніпропетровська обл.",
    "lat": 48.1731133,
    "lng": 35.5549297,
    "meta": {
      "google_maps_place_id": "ChIJYTJjQ7AZ3EAROLYjVdR7wGs"
    }
  },
  {
    "id": 31202,
    "name_no_copy": "с. Мажугівка, Гончарівська громада, Чернігівський р-н, Чернігівська обл.",
    "lat": 51.39759710000001,
    "lng": 31.0954413,
    "meta": {
      "google_maps_place_id": "ChIJoTZL95Ra1UYRPBdA8QvNz_k"
    }
  },
  {
    "id": 30864,
    "name_no_copy": "с. Максимихине, Семенівська громада, Новгород-Сіверський р-н, Чернігівська обл.",
    "lat": 52.1806938,
    "lng": 32.94678740000001,
    "meta": {
      "google_maps_place_id": "ChIJ1Qz0taBYK0ERDij6rTQSqjU"
    }
  },
  {
    "id": 7292,
    "name_no_copy": "с-ще Маловодне, Мирненська громада, Волноваський р-н, Донецька обл.",
    "lat": 47.3685357,
    "lng": 37.6764711,
    "meta": {
      "google_maps_place_id": "ChIJNSXsII8o50ARFM5L7mmjJus"
    }
  },
  {
    "id": 5980,
    "name_no_copy": "с. Маломихайлівка, Криничанська громада, Кам'янський р-н, Дніпропетровська обл.",
    "lat": 48.2554928,
    "lng": 34.4357427,
    "meta": {
      "google_maps_place_id": "ChIJJ3I3XeC920ARXMRfJ4wrsSI"
    }
  },
  {
    "id": 5981,
    "name_no_copy": "с. Малярщина, Криничанська громада, Кам'янський р-н, Дніпропетровська обл.",
    "lat": 48.3627993,
    "lng": 34.3399312,
    "meta": {
      "google_maps_place_id": "ChIJhcdML2u420AR-stBVRRh5BM"
    }
  },
  {
    "id": 9538,
    "name_no_copy": "с. Малі Мошки, Овруцька громада, Коростенський р-н, Житомирська обл.",
    "lat": 51.2749524,
    "lng": 28.873718,
    "meta": {
      "google_maps_place_id": "ChIJl33bStwoKkcRFhFtRZMWAFA"
    }
  },
  {
    "id": 15760,
    "name_no_copy": "с. Мамчурі, Заболотцівська громада, Золочівський р-н, Львівська обл.",
    "lat": 50.0954692,
    "lng": 24.9593664,
    "meta": {
      "google_maps_place_id": "ChIJZYxToP1QJUcROhxdZfdIH24"
    }
  },
  {
    "id": 21659,
    "name_no_copy": "с. Мантин, Млинівська громада, Дубенський р-н, Рівненська обл.",
    "lat": 50.533021,
    "lng": 25.6007642,
    "meta": {
      "google_maps_place_id": "ChIJXeDawe9_L0cRSCn3F4JLFOs"
    }
  },
  {
    "id": 22881,
    "name_no_copy": "с. Манчичі, Чернеччинська громада, Охтирський р-н, Сумська обл.",
    "lat": 50.32603719999999,
    "lng": 34.9735072,
    "meta": {
      "google_maps_place_id": "ChIJc1O4kVQSKEERghlXB4o1To8"
    }
  },
  {
    "id": 30865,
    "name_no_copy": "с. Марс, Семенівська громада, Новгород-Сіверський р-н, Чернігівська обл.",
    "lat": 52.1586879,
    "lng": 32.7387058,
    "meta": {
      "google_maps_place_id": "ChIJdf2S30lXK0EROu7N4CjCTRM"
    }
  },
  {
    "id": 26948,
    "name_no_copy": "с. Мартівка, Іванівська громада, Генічеський р-н, Херсонська обл.",
    "lat": 46.5703435,
    "lng": 34.6353328,
    "meta": {
      "google_maps_place_id": "ChIJk5odQL_0wkARTK_5wJvFFfg"
    }
  },
  {
    "id": 23311,
    "name_no_copy": "с. Марченки, Краснопільська громада, Сумський р-н, Сумська обл.",
    "lat": 50.906337,
    "lng": 35.0727743,
    "meta": {
      "google_maps_place_id": "ChIJuXrSqMvkKEERMEbAlVtQlgE"
    }
  },
  {
    "id": 23674,
    "name_no_copy": "с. Масензівка, Березівська громада, Шосткинський р-н, Сумська обл.",
    "lat": 51.8498852,
    "lng": 34.0241537,
    "meta": {
      "google_maps_place_id": "ChIJqxZU1m91LEEResDolWzKGIY"
    }
  },
  {
    "id": 15076,
    "name_no_copy": "с. Маслакове, Лозно-Олександрівська громада, Сватівський р-н, Луганська обл.",
    "lat": 49.8463605,
    "lng": 38.6492974,
    "meta": {
      "google_maps_place_id": "ChIJ2cojYrFzIUERlhxDXqf38us"
    }
  },
  {
    "id": 15158,
    "name_no_copy": "с. Маслівка, Троїцька громада, Сватівський р-н, Луганська обл.",
    "lat": 49.9470857,
    "lng": 38.5865173,
    "meta": {
      "google_maps_place_id": "ChIJNVEqKuduIUERTJA3wmRmbWs"
    }
  },
  {
    "id": 23717,
    "name_no_copy": "с. Микитське, Дружбівська громада, Шосткинський р-н, Сумська обл.",
    "lat": 52.0420129,
    "lng": 34.0934544,
    "meta": {
      "google_maps_place_id": "ChIJFyNZfK1vLEERzjkJl1PnQoY"
    }
  },
  {
    "id": 5849,
    "name_no_copy": "с-ще Милорадівка, Божедарівська громада, Кам'янський р-н, Дніпропетровська обл.",
    "lat": 48.1994887,
    "lng": 33.9582568,
    "meta": {
      "google_maps_place_id": "ChIJ_ZdyZwup20ARZu2jSXkA1bk"
    }
  },
  {
    "id": 5982,
    "name_no_copy": "с. Мирне, Криничанська громада, Кам'янський р-н, Дніпропетровська обл.",
    "lat": 48.321243,
    "lng": 34.2753007,
    "meta": {
      "google_maps_place_id": "ChIJQWlSbfO520AR3n_Op6xkokU"
    }
  },
  {
    "id": 6020,
    "name_no_copy": "с. Миронівка, Лихівська громада, Кам'янський р-н, Дніпропетровська обл.",
    "lat": 47.7878946,
    "lng": 34.0665752,
    "meta": {
      "google_maps_place_id": "ChIJXYYFP61p20ARxiLdeiTy2Qc"
    }
  },
  {
    "id": 4935,
    "name_no_copy": "с. Мислина, Дубівська громада, Ковельський р-н, Волинська обл.",
    "lat": 51.31229889999999,
    "lng": 24.6662043,
    "meta": {
      "google_maps_place_id": "ChIJE9v0OKojJEcRAMNSplAoOJA"
    }
  },
  {
    "id": 24844,
    "name_no_copy": "с. Михалків, Мельнице-Подільська громада, Чортківський р-н, Тернопільська обл.",
    "lat": 48.6271532,
    "lng": 26.0850614,
    "meta": {
      "google_maps_place_id": "ChIJqd779MTgM0cRRpEOqnEyhfg"
    }
  },
  {
    "id": 8659,
    "name_no_copy": "с. Мишерине, Корнинська громада, Житомирський р-н, Житомирська обл.",
    "lat": 50.1571888,
    "lng": 29.4867442,
    "meta": {
      "google_maps_place_id": "ChIJ4wy7EVOhLEcRUiDrnrwGxLw"
    }
  },
  {
    "id": 30268,
    "name_no_copy": "с. Мишине, Сновська громада, Корюківський р-н, Чернігівська обл.",
    "lat": 51.927901,
    "lng": 32.0475751,
    "meta": {
      "google_maps_place_id": "ChIJQZyY_6jN1EYRfMcFBslLQxs"
    }
  },
  {
    "id": 9540,
    "name_no_copy": "с. Мишковичі, Овруцька громада, Коростенський р-н, Житомирська обл.",
    "lat": 51.3397546,
    "lng": 28.6504164,
    "meta": {
      "google_maps_place_id": "ChIJFXPuRcWFKUcRlkrX3QCEmDQ"
    }
  },
  {
    "id": 30270,
    "name_no_copy": "с. Млинок, Сновська громада, Корюківський р-н, Чернігівська обл.",
    "lat": 51.9927517,
    "lng": 31.9942432,
    "meta": {
      "google_maps_place_id": "ChIJnfCzDs7O1EYRYDQk6yvKzG8"
    }
  },
  {
    "id": 7498,
    "name_no_copy": "с. Мокроєланчик, Амвросіївська громада, Донецький р-н, Донецька обл.",
    "lat": 47.7029324,
    "lng": 38.49748,
    "meta": {
      "google_maps_place_id": "ChIJ26KwzZMb4UARtpU8X2buWCc"
    }
  },
  {
    "id": 22777,
    "name_no_copy": "с. Молодецьке, Грунська громада, Охтирський р-н, Сумська обл.",
    "lat": 50.3233298,
    "lng": 34.6421507,
    "meta": {
      "google_maps_place_id": "ChIJ49wpujw9KEER4ghC30y9xzs"
    }
  },
  {
    "id": 24521,
    "name_no_copy": "с. Молохів, Саранчуківська громада, Тернопільський р-н, Тернопільська обл.",
    "lat": 49.3531518,
    "lng": 24.8865651,
    "meta": {
      "google_maps_place_id": "ChIJz4UHqERhMEcRHiDNck0T4Mw"
    }
  },
  {
    "id": 8877,
    "name_no_copy": "с. Морогівка, Потіївська громада, Житомирський р-н, Житомирська обл.",
    "lat": 50.6467646,
    "lng": 29.1034989,
    "meta": {
      "google_maps_place_id": "ChIJAQxWTyOZK0cR6v-I5CpEVOY"
    }
  },
  {
    "id": 22563,
    "name_no_copy": "с. Мостище, Кролевецька громада, Конотопський р-н, Сумська обл.",
    "lat": 51.5922016,
    "lng": 33.4058391,
    "meta": {
      "google_maps_place_id": "ChIJHSKY4M68K0ERotOSTr9bOec"
    }
  },
  {
    "id": 30696,
    "name_no_copy": "с. Мохове, Коропська громада, Новгород-Сіверський р-н, Чернігівська обл.",
    "lat": 51.4887885,
    "lng": 32.7073571,
    "meta": {
      "google_maps_place_id": "ChIJR-xjRfL9KkERpDsZuIF0SFI"
    }
  },
  {
    "id": 9040,
    "name_no_copy": "с. Мошківка, Станишівська громада, Житомирський р-н, Житомирська обл.",
    "lat": 50.1712758,
    "lng": 28.9966499,
    "meta": {
      "google_maps_place_id": "ChIJlzaD7pePLEcRUANJGDq_xt4"
    }
  },
  {
    "id": 9700,
    "name_no_copy": "с. Мошківка, Ушомирська громада, Коростенський р-н, Житомирська обл.",
    "lat": 50.79222590000001,
    "lng": 28.4261226,
    "meta": {
      "google_maps_place_id": "ChIJbfviEybkK0cRoGDKFGQgzMs"
    }
  },
  {
    "id": 23483,
    "name_no_copy": "с. Мукіївка, Миколаївська громада, Сумський р-н, Сумська обл.",
    "lat": 50.8238803,
    "lng": 34.2791203,
    "meta": {
      "google_maps_place_id": "ChIJw1AzwcKkKUERIrkic34YgBI"
    }
  },
  {
    "id": 19361,
    "name_no_copy": "с. Муратове, Великомихайлівська громада, Роздільнянський р-н, Одеська обл.",
    "lat": 47.1085539,
    "lng": 29.7231086,
    "meta": {
      "google_maps_place_id": "ChIJRxf7k6QkyUARGvmdcuVyfKs"
    }
  },
  {
    "id": 7088,
    "name_no_copy": "с. Мідна Руда, Бахмутська громада, Бахмутський р-н, Донецька обл.",
    "lat": 48.5518991,
    "lng": 38.2047185,
    "meta": {
      "google_maps_place_id": "ChIJZdrxwzvi30ARpP-0o978kRE"
    }
  },
  {
    "id": 25240,
    "name_no_copy": "с. Мірошниківка, Коломацька громада, Богодухівський р-н, Харківська обл.",
    "lat": 49.7486577,
    "lng": 35.2776798,
    "meta": {
      "google_maps_place_id": "ChIJK0-2u9ty2EARCAEnR-b7s-E"
    }
  },
  {
    "id": 30269,
    "name_no_copy": "с. Містки, Сновська громада, Корюківський р-н, Чернігівська обл.",
    "lat": 52.01058399999999,
    "lng": 32.044901,
    "meta": {
      "google_maps_place_id": "ChIJiecLDULJ1EYRhAQBR0eHsSo"
    }
  },
  {
    "id": 14647,
    "name_no_copy": "с-ще Міус, Алчевська громада, Алчевський р-н, Луганська обл.",
    "lat": 48.286399,
    "lng": 38.5454414,
    "meta": {
      "google_maps_place_id": "ChIJw3DeSB9A4EARjJZvaTNl0fQ"
    }
  },
  {
    "id": 30870,
    "name_no_copy": "с. Набережне, Семенівська громада, Новгород-Сіверський р-н, Чернігівська обл.",
    "lat": 52.20394539999999,
    "lng": 32.3931254,
    "meta": {
      "google_maps_place_id": "ChIJnfclFa6t1EYRBLsPASbPvcU"
    }
  },
  {
    "id": 23519,
    "name_no_copy": "с. Над'ярне, Миколаївська громада, Сумський р-н, Сумська обл.",
    "lat": 51.0355888,
    "lng": 34.6499364,
    "meta": {
      "google_maps_place_id": "ChIJ6xZPSOoPKUERPF8vaJVVMcs"
    }
  },
  {
    "id": 7045,
    "name_no_copy": "с. Надеждине, Славгородська громада, Синельниківський р-н, Дніпропетровська обл.",
    "lat": 48.2049989,
    "lng": 35.543118,
    "meta": {
      "google_maps_place_id": "ChIJ4VhEpmMZ3EAREvjuglpyaYI"
    }
  },
  {
    "id": 4721,
    "name_no_copy": "с. Надрічне, Камінь-Каширська громада, Камінь-Каширський р-н, Волинська обл.",
    "lat": 51.4930718,
    "lng": 25.2866978,
    "meta": {
      "google_maps_place_id": "ChIJLehfo3qIJkcRwLIkt5WqcQg"
    }
  },
  {
    "id": 15043,
    "name_no_copy": "с. Надія, Коломийчиська громада, Сватівський р-н, Луганська обл.",
    "lat": 49.3704603,
    "lng": 37.9259954,
    "meta": {
      "google_maps_place_id": "ChIJi1Fe-L7zIEERuLEGTzHcf-k"
    }
  },
  {
    "id": 9464,
    "name_no_copy": "с. Недашківка, Народицька громада, Коростенський р-н, Житомирська обл.",
    "lat": 51.0528685,
    "lng": 29.4837012,
    "meta": {
      "google_maps_place_id": "ChIJ0864VSBSKkcRDu9tYq1v894"
    }
  },
  {
    "id": 30698,
    "name_no_copy": "с. Некрите, Коропська громада, Новгород-Сіверський р-н, Чернігівська обл.",
    "lat": 51.5797683,
    "lng": 33.1994227,
    "meta": {
      "google_maps_place_id": "ChIJPXjQaICmK0ER2fUizKuXbP8"
    }
  },
  {
    "id": 23069,
    "name_no_copy": "с. Нелени, Недригайлівська громада, Роменський р-н, Сумська обл.",
    "lat": 50.9562866,
    "lng": 33.690549,
    "meta": {
      "google_maps_place_id": "ChIJbWkkNdqIKUERkAa2yvm-_2E"
    }
  },
  {
    "id": 22809,
    "name_no_copy": "с. Неплатине, Комишанська громада, Охтирський р-н, Сумська обл.",
    "lat": 50.314743,
    "lng": 34.563799,
    "meta": {
      "google_maps_place_id": "ChIJGXfh4kYjKEERcp0XMFTjmd0"
    }
  },
  {
    "id": 6073,
    "name_no_copy": "с. Нерудсталь, Саксаганська громада, Кам'янський р-н, Дніпропетровська обл.",
    "lat": 48.3767809,
    "lng": 33.7442173,
    "meta": {
      "google_maps_place_id": "ChIJ74qjQGhQ2kARMC5NIiAmMdk"
    }
  },
  {
    "id": 30995,
    "name": "с. Нетягівщина, Линовицька громада, Прилуцький р-н, Чернігівська обл.",
    "lat": 50.485198,
    "lng": 32.32703,
    "meta": {
      "google_maps_place_id": "ChIJJ-04czDA1UAR1HCXopHHLXU"
    }
  },
  {
    "id": 29798,
    "name_no_copy": "с. Нижній Яловець, Селятинська громада, Вижницький р-н, Чернівецька обл.",
    "lat": 47.8573647,
    "lng": 25.0036494,
    "meta": {
      "google_maps_place_id": "ChIJvW7SECR9NkcRiVx9uX6l7hw"
    }
  },
  {
    "id": 30169,
    "name_no_copy": "с. Нова Буда, Корюківська громада, Корюківський р-н, Чернігівська обл.",
    "lat": 51.7093832,
    "lng": 32.0546961,
    "meta": {
      "google_maps_place_id": "ChIJ34VzZuYpK0ERLB18HHdxDR0"
    }
  },
  {
    "id": 24523,
    "name_no_copy": "с. Нова Гребля, Саранчуківська громада, Тернопільський р-н, Тернопільська обл.",
    "lat": 50.5833223,
    "lng": 29.88445489999999,
    "meta": {
      "google_maps_place_id": "ChIJee1b_tg9K0cRPubydmaD784"
    }
  },
  {
    "id": 30996,
    "name_no_copy": "с. Нова Гребля, Линовицька громада, Прилуцький р-н, Чернігівська обл.",
    "lat": 50.4156925,
    "lng": 32.4667395,
    "meta": {
      "google_maps_place_id": "ChIJe_xUs93C1UARHNyzRXEbauk"
    }
  },
  {
    "id": 31388,
    "name_no_copy": "с. Нова Гребля, Козелецька громада, Чернігівський р-н, Чернігівська обл.",
    "lat": 50.9862756,
    "lng": 31.3616731,
    "meta": {
      "google_maps_place_id": "ChIJoRmd7Shb1UAR5o2DWKy5l9U"
    }
  },
  {
    "id": 30170,
    "name_no_copy": "с. Нова Гуринівка, Корюківська громада, Корюківський р-н, Чернігівська обл.",
    "lat": 51.7313963,
    "lng": 32.290448,
    "meta": {
      "google_maps_place_id": "ChIJQSAkudElK0ERjs7NzWFhWxI"
    }
  },
  {
    "id": 7089,
    "name_no_copy": "с. Нова Кам'янка, Бахмутська громада, Бахмутський р-н, Донецька обл.",
    "lat": 48.6654235,
    "lng": 38.1388916,
    "meta": {
      "google_maps_place_id": "ChIJx-850Mf630ARsHbNIuXIY2Q"
    }
  },
  {
    "id": 8879,
    "name_no_copy": "с. Нова Мар'янівка, Потіївська громада, Житомирський р-н, Житомирська обл.",
    "lat": 50.6448064,
    "lng": 28.8607056,
    "meta": {
      "google_maps_place_id": "ChIJpfThcg2RK0cRmE4Z_TTyYJc"
    }
  },
  {
    "id": 30960,
    "name_no_copy": "с. Нова Ольшана, Ічнянська громада, Прилуцький р-н, Чернігівська обл.",
    "lat": 50.7251359,
    "lng": 32.4813303,
    "meta": {
      "google_maps_place_id": "ChIJGXXtLH-M1UAR8FIG8dIo8zk"
    }
  },
  {
    "id": 31294,
    "name_no_copy": "с. Нова Папірня, Добрянська громада, Чернігівський р-н, Чернігівська обл.",
    "lat": 52.0229109,
    "lng": 30.9572583,
    "meta": {
      "google_maps_place_id": "ChIJ5fK_vR8A1UYR6DGBr5ZgIKE"
    }
  },
  {
    "id": 30368,
    "name_no_copy": "с. Нове Полісся, Батуринська громада, Ніжинський р-н, Чернігівська обл.",
    "lat": 51.3980979,
    "lng": 32.9116866,
    "meta": {
      "google_maps_place_id": "ChIJa4nqwvJUKkERktsXpof6acQ"
    }
  },
  {
    "id": 28715,
    "name_no_copy": "с. Новий Кривин, Нетішинська громада, Шепетівський р-н, Хмельницька обл.",
    "lat": 50.3842741,
    "lng": 26.700953,
    "meta": {
      "google_maps_place_id": "ChIJy20hS178LkcRqrO_Ww81x1Q"
    }
  },
  {
    "id": 19378,
    "name_no_copy": "с. Новоантонівка, Великоплосківська громада, Роздільнянський р-н, Одеська обл.",
    "lat": 47.0535163,
    "lng": 29.7503366,
    "meta": {
      "google_maps_place_id": "ChIJr7bK38sjyUARTlT8uYp0u90"
    }
  },
  {
    "id": 15453,
    "name_no_copy": "с. Новоастраханське, Шульгинська громада, Старобільський р-н, Луганська обл.",
    "lat": 49.1223988,
    "lng": 38.7425204,
    "meta": {
      "google_maps_place_id": "ChIJ-yVk_AA7IEER9m2tb7eGaNY"
    }
  },
  {
    "id": 10916,
    "name_no_copy": "с. Новобойківське, Комишуваська громада, Запорізький р-н, Запорізька обл.",
    "lat": 47.6313121,
    "lng": 35.4744524,
    "meta": {
      "google_maps_place_id": "ChIJ0yCq82NV3EARmm2t4L2GWaM"
    }
  },
  {
    "id": 6785,
    "name_no_copy": "с. Новогеоргіївка, Великомихайлівська громада, Синельниківський р-н, Дніпропетровська обл.",
    "lat": 47.8698688,
    "lng": 36.5652322,
    "meta": {
      "google_maps_place_id": "ChIJr2H9kLTg3UARGJ2KNixGlc8"
    }
  },
  {
    "id": 17478,
    "name_no_copy": "с. Новогорожене, Баштанська громада, Баштанський р-н, Миколаївська обл.",
    "lat": 47.47925009999999,
    "lng": 32.5263341,
    "meta": {
      "google_maps_place_id": "ChIJy47M6u4ZxUAR7j74RpYozMo"
    }
  },
  {
    "id": 27317,
    "name_no_copy": "с. Новодмитрівка, Білозерська громада, Херсонський р-н, Херсонська обл.",
    "lat": 46.6041771,
    "lng": 32.313104,
    "meta": {
      "google_maps_place_id": "ChIJaVCDvJEfxEARnFgld29DfAI"
    }
  },
  {
    "id": 5983,
    "name_no_copy": "с. Новокалинівка, Криничанська громада, Кам'янський р-н, Дніпропетровська обл.",
    "lat": 48.2783155,
    "lng": 34.3893822,
    "meta": {
      "google_maps_place_id": "ChIJU-atJZm-20ARJFC3qJIRz44"
    }
  },
  {
    "id": 11435,
    "name_no_copy": "с. Новокам'янка, Комиш-Зорянська громада, Пологівський р-н, Запорізька обл.",
    "lat": 47.309456,
    "lng": 36.7093059,
    "meta": {
      "google_maps_place_id": "ChIJ49csCYZw50ARqHGXqSm2goU"
    }
  },